[
  {
    "name": "Johannesburg",
    "ascii": "Johannesburg",
    "state": "Gauteng",
    "population": 9418183,
    "lat": -26.20227,
    "lon": 28.04363,
    "featureCode": "PPLA"
  },
  {
    "name": "Cape Town",
    "ascii": "Cape Town",
    "state": "Western Cape",
    "population": 4772846,
    "lat": -33.92584,
    "lon": 18.42322,
    "featureCode": "PPLA"
  },
  {
    "name": "Durban",
    "ascii": "Durban",
    "state": "KwaZulu-Natal",
    "population": 3338026,
    "lat": -29.8579,
    "lon": 31.0292,
    "featureCode": "PPLA2"
  },
  {
    "name": "Pretoria",
    "ascii": "Pretoria",
    "state": "Gauteng",
    "population": 2112693,
    "lat": -25.74486,
    "lon": 28.18783,
    "featureCode": "PPLC"
  },
  {
    "name": "Soweto",
    "ascii": "Soweto",
    "state": "Gauteng",
    "population": 1695047,
    "lat": -26.26781,
    "lon": 27.85849,
    "featureCode": "PPL"
  },
  {
    "name": "Gqeberha",
    "ascii": "Gqeberha",
    "state": "Eastern Cape",
    "population": 1050078,
    "lat": -33.96109,
    "lon": 25.61494,
    "featureCode": "PPLA2"
  },
  {
    "name": "Soshanguve",
    "ascii": "Soshanguve",
    "state": "Gauteng",
    "population": 872309,
    "lat": -25.47288,
    "lon": 28.09919,
    "featureCode": "PPL"
  },
  {
    "name": "Pietermaritzburg",
    "ascii": "Pietermaritzburg",
    "state": "KwaZulu-Natal",
    "population": 839327,
    "lat": -29.61679,
    "lon": 30.39278,
    "featureCode": "PPLA"
  },
  {
    "name": "Evaton",
    "ascii": "Evaton",
    "state": "Gauteng",
    "population": 725468,
    "lat": -26.53333,
    "lon": 27.85,
    "featureCode": "PPL"
  },
  {
    "name": "Benoni",
    "ascii": "Benoni",
    "state": "Gauteng",
    "population": 605344,
    "lat": -26.18848,
    "lon": 28.32078,
    "featureCode": "PPL"
  },
  {
    "name": "Bloemfontein",
    "ascii": "Bloemfontein",
    "state": "Free State",
    "population": 556637,
    "lat": -29.12107,
    "lon": 26.214,
    "featureCode": "PPLA"
  },
  {
    "name": "Thembisa",
    "ascii": "Thembisa",
    "state": "Gauteng",
    "population": 511655,
    "lat": -25.99636,
    "lon": 28.2268,
    "featureCode": "PPL"
  },
  {
    "name": "East London",
    "ascii": "East London",
    "state": "Eastern Cape",
    "population": 478676,
    "lat": -33.01529,
    "lon": 27.91162,
    "featureCode": "PPLA2"
  },
  {
    "name": "Vereeniging",
    "ascii": "Vereeniging",
    "state": "Gauteng",
    "population": 474681,
    "lat": -26.67313,
    "lon": 27.92615,
    "featureCode": "PPLA2"
  },
  {
    "name": "Boksburg",
    "ascii": "Boksburg",
    "state": "Gauteng",
    "population": 445168,
    "lat": -26.21197,
    "lon": 28.25958,
    "featureCode": "PPL"
  },
  {
    "name": "Welkom",
    "ascii": "Welkom",
    "state": "Free State",
    "population": 431944,
    "lat": -27.97742,
    "lon": 26.73506,
    "featureCode": "PPLA2"
  },
  {
    "name": "Newcastle",
    "ascii": "Newcastle",
    "state": "KwaZulu-Natal",
    "population": 404838,
    "lat": -27.75796,
    "lon": 29.9318,
    "featureCode": "PPLA2"
  },
  {
    "name": "Krugersdorp",
    "ascii": "Krugersdorp",
    "state": "Gauteng",
    "population": 378821,
    "lat": -26.08577,
    "lon": 27.77515,
    "featureCode": "PPLA3"
  },
  {
    "name": "Rustenburg",
    "ascii": "Rustenburg",
    "state": "North West",
    "population": 373695,
    "lat": -25.66756,
    "lon": 27.24208,
    "featureCode": "PPLA3"
  },
  {
    "name": "Emalahleni",
    "ascii": "Emalahleni",
    "state": "Mpumalanga",
    "population": 373403,
    "lat": -25.87133,
    "lon": 29.23323,
    "featureCode": "PPLA3"
  },
  {
    "name": "Diepsloot",
    "ascii": "Diepsloot",
    "state": "Gauteng",
    "population": 350000,
    "lat": -25.93312,
    "lon": 28.01213,
    "featureCode": "PPLX"
  },
  {
    "name": "Randburg",
    "ascii": "Randburg",
    "state": "Gauteng",
    "population": 337053,
    "lat": -26.0941,
    "lon": 28.00123,
    "featureCode": "PPL"
  },
  {
    "name": "Roodepoort",
    "ascii": "Roodepoort",
    "state": "Gauteng",
    "population": 326416,
    "lat": -26.1625,
    "lon": 27.8725,
    "featureCode": "PPL"
  },
  {
    "name": "Botshabelo",
    "ascii": "Botshabelo",
    "state": "Free State",
    "population": 309714,
    "lat": -29.26737,
    "lon": 26.72595,
    "featureCode": "PPL"
  },
  {
    "name": "Brakpan",
    "ascii": "Brakpan",
    "state": "Gauteng",
    "population": 305692,
    "lat": -26.23656,
    "lon": 28.36938,
    "featureCode": "PPL"
  },
  {
    "name": "Kariega",
    "ascii": "Kariega",
    "state": "Eastern Cape",
    "population": 291052,
    "lat": -33.75562,
    "lon": 25.40074,
    "featureCode": "PPL"
  },
  {
    "name": "Polokwane",
    "ascii": "Polokwane",
    "state": "Limpopo",
    "population": 272461,
    "lat": -23.90449,
    "lon": 29.46885,
    "featureCode": "PPLA"
  },
  {
    "name": "Germiston",
    "ascii": "Germiston",
    "state": "Gauteng",
    "population": 255863,
    "lat": -26.23481,
    "lon": 28.17665,
    "featureCode": "PPLA2"
  },
  {
    "name": "Richards Bay",
    "ascii": "Richards Bay",
    "state": "KwaZulu-Natal",
    "population": 252968,
    "lat": -28.78301,
    "lon": 32.03768,
    "featureCode": "PPLA2"
  },
  {
    "name": "Vanderbijlpark",
    "ascii": "Vanderbijlpark",
    "state": "Gauteng",
    "population": 246754,
    "lat": -26.71171,
    "lon": 27.83795,
    "featureCode": "PPLA3"
  },
  {
    "name": "Athlone",
    "ascii": "Athlone",
    "state": "Western Cape",
    "population": 237414,
    "lat": -33.96722,
    "lon": 18.50214,
    "featureCode": "PPLX"
  },
  {
    "name": "Paarl",
    "ascii": "Paarl",
    "state": "Western Cape",
    "population": 236910,
    "lat": -33.73378,
    "lon": 18.97523,
    "featureCode": "PPLA3"
  },
  {
    "name": "Centurion",
    "ascii": "Centurion",
    "state": "Gauteng",
    "population": 236580,
    "lat": -25.85891,
    "lon": 28.18577,
    "featureCode": "PPL"
  },
  {
    "name": "Klerksdorp",
    "ascii": "Klerksdorp",
    "state": "North West",
    "population": 227039,
    "lat": -26.85213,
    "lon": 26.66672,
    "featureCode": "PPLA2"
  },
  {
    "name": "Somerset West",
    "ascii": "Somerset West",
    "state": "Western Cape",
    "population": 225289,
    "lat": -34.08401,
    "lon": 18.82113,
    "featureCode": "PPL"
  },
  {
    "name": "Mdantsane",
    "ascii": "Mdantsane",
    "state": "Eastern Cape",
    "population": 205504,
    "lat": -32.93324,
    "lon": 27.77656,
    "featureCode": "PPL"
  },
  {
    "name": "Middelburg",
    "ascii": "Middelburg",
    "state": "Mpumalanga",
    "population": 196263,
    "lat": -25.77507,
    "lon": 29.46482,
    "featureCode": "PPLA2"
  },
  {
    "name": "George",
    "ascii": "George",
    "state": "Western Cape",
    "population": 188580,
    "lat": -33.963,
    "lon": 22.46173,
    "featureCode": "PPLA2"
  },
  {
    "name": "Springs",
    "ascii": "Springs",
    "state": "Gauteng",
    "population": 186394,
    "lat": -26.25,
    "lon": 28.4,
    "featureCode": "PPLX"
  },
  {
    "name": "Ivory Park",
    "ascii": "Ivory Park",
    "state": "Gauteng",
    "population": 184383,
    "lat": -25.9957,
    "lon": 28.1971,
    "featureCode": "PPLX"
  },
  {
    "name": "Carletonville",
    "ascii": "Carletonville",
    "state": "Gauteng",
    "population": 182304,
    "lat": -26.36094,
    "lon": 27.39767,
    "featureCode": "PPLA3"
  },
  {
    "name": "Alexandra",
    "ascii": "Alexandra",
    "state": "Gauteng",
    "population": 179624,
    "lat": -26.10528,
    "lon": 28.09884,
    "featureCode": "PPLX"
  },
  {
    "name": "Potchefstroom",
    "ascii": "Potchefstroom",
    "state": "North West",
    "population": 178285,
    "lat": -26.71667,
    "lon": 27.1,
    "featureCode": "PPLA3"
  },
  {
    "name": "Mthatha",
    "ascii": "Mthatha",
    "state": "Eastern Cape",
    "population": 164848,
    "lat": -31.58893,
    "lon": 28.78443,
    "featureCode": "PPL"
  },
  {
    "name": "KwaDukuza",
    "ascii": "KwaDukuza",
    "state": "KwaZulu-Natal",
    "population": 161177,
    "lat": -29.32816,
    "lon": 31.28954,
    "featureCode": "PPL"
  },
  {
    "name": "Westonaria",
    "ascii": "Westonaria",
    "state": "Gauteng",
    "population": 156831,
    "lat": -26.31905,
    "lon": 27.6486,
    "featureCode": "PPLA3"
  },
  {
    "name": "Etwatwa",
    "ascii": "Etwatwa",
    "state": "Gauteng",
    "population": 151866,
    "lat": -26.12516,
    "lon": 28.45472,
    "featureCode": "PPL"
  },
  {
    "name": "Vryheid",
    "ascii": "Vryheid",
    "state": "KwaZulu-Natal",
    "population": 150012,
    "lat": -27.76952,
    "lon": 30.79165,
    "featureCode": "PPLA3"
  },
  {
    "name": "Pinetown",
    "ascii": "Pinetown",
    "state": "KwaZulu-Natal",
    "population": 144026,
    "lat": -29.82068,
    "lon": 30.88674,
    "featureCode": "PPL"
  },
  {
    "name": "Ladysmith",
    "ascii": "Ladysmith",
    "state": "KwaZulu-Natal",
    "population": 143446,
    "lat": -28.55874,
    "lon": 29.77896,
    "featureCode": "PPLA2"
  },
  {
    "name": "eMbalenhle",
    "ascii": "eMbalenhle",
    "state": "Mpumalanga",
    "population": 142443,
    "lat": -26.53333,
    "lon": 29.06667,
    "featureCode": "PPL"
  },
  {
    "name": "Kimberley",
    "ascii": "Kimberley",
    "state": "Northern Cape",
    "population": 142089,
    "lat": -28.73226,
    "lon": 24.76232,
    "featureCode": "PPLA"
  },
  {
    "name": "Nigel",
    "ascii": "Nigel",
    "state": "Gauteng",
    "population": 140644,
    "lat": -26.43138,
    "lon": 28.47713,
    "featureCode": "PPL"
  },
  {
    "name": "Mpumalanga",
    "ascii": "Mpumalanga",
    "state": "KwaZulu-Natal",
    "population": 140121,
    "lat": -29.81292,
    "lon": 30.63646,
    "featureCode": "PPL"
  },
  {
    "name": "Bhisho",
    "ascii": "Bhisho",
    "state": "Eastern Cape",
    "population": 137287,
    "lat": -32.84721,
    "lon": 27.44218,
    "featureCode": "PPLA"
  },
  {
    "name": "Sasolburg",
    "ascii": "Sasolburg",
    "state": "Free State",
    "population": 135828,
    "lat": -26.81358,
    "lon": 27.81695,
    "featureCode": "PPLA2"
  },
  {
    "name": "Randfontein",
    "ascii": "Randfontein",
    "state": "Gauteng",
    "population": 133654,
    "lat": -26.1844,
    "lon": 27.70203,
    "featureCode": "PPLA2"
  },
  {
    "name": "Worcester",
    "ascii": "Worcester",
    "state": "Western Cape",
    "population": 127597,
    "lat": -33.64651,
    "lon": 19.44852,
    "featureCode": "PPLA2"
  },
  {
    "name": "Ntuzuma",
    "ascii": "Ntuzuma",
    "state": "KwaZulu-Natal",
    "population": 125394,
    "lat": -29.739,
    "lon": 30.949,
    "featureCode": "PPL"
  },
  {
    "name": "Virginia",
    "ascii": "Virginia",
    "state": "Free State",
    "population": 122502,
    "lat": -28.10391,
    "lon": 26.86593,
    "featureCode": "PPL"
  },
  {
    "name": "Brits",
    "ascii": "Brits",
    "state": "North West",
    "population": 122497,
    "lat": -25.63473,
    "lon": 27.78022,
    "featureCode": "PPLA3"
  },
  {
    "name": "Alberton",
    "ascii": "Alberton",
    "state": "Gauteng",
    "population": 121536,
    "lat": -26.26786,
    "lon": 28.12225,
    "featureCode": "PPL"
  },
  {
    "name": "Queenstown",
    "ascii": "Queenstown",
    "state": "Eastern Cape",
    "population": 118599,
    "lat": -31.89756,
    "lon": 26.87533,
    "featureCode": "PPLA2"
  },
  {
    "name": "Kroonstad",
    "ascii": "Kroonstad",
    "state": "Free State",
    "population": 117152,
    "lat": -27.65036,
    "lon": 27.23488,
    "featureCode": "PPLA3"
  },
  {
    "name": "Somaroboro",
    "ascii": "Somaroboro",
    "state": "Mpumalanga",
    "population": 114369,
    "lat": -25.34604,
    "lon": 28.83431,
    "featureCode": "PPL"
  },
  {
    "name": "Hammanskraal",
    "ascii": "Hammanskraal",
    "state": "North West",
    "population": 112950,
    "lat": -25.40892,
    "lon": 28.287,
    "featureCode": "PPL"
  },
  {
    "name": "Mabopane",
    "ascii": "Mabopane",
    "state": "Gauteng",
    "population": 110972,
    "lat": -25.509,
    "lon": 28.064,
    "featureCode": "PPL"
  },
  {
    "name": "Mbombela",
    "ascii": "Mbombela",
    "state": "Mpumalanga",
    "population": 110159,
    "lat": -25.47512,
    "lon": 30.96935,
    "featureCode": "PPLA"
  },
  {
    "name": "Orkney",
    "ascii": "Orkney",
    "state": "North West",
    "population": 110052,
    "lat": -26.98023,
    "lon": 26.67272,
    "featureCode": "PPL"
  },
  {
    "name": "Phalaborwa",
    "ascii": "Phalaborwa",
    "state": "Limpopo",
    "population": 109468,
    "lat": -23.94299,
    "lon": 31.14107,
    "featureCode": "PPLA3"
  },
  {
    "name": "Thohoyandou",
    "ascii": "Thohoyandou",
    "state": "Limpopo",
    "population": 107144,
    "lat": -22.94564,
    "lon": 30.48497,
    "featureCode": "PPLA2"
  },
  {
    "name": "Tokoza",
    "ascii": "Tokoza",
    "state": "Gauteng",
    "population": 106000,
    "lat": -26.36,
    "lon": 28.129,
    "featureCode": "PPL"
  },
  {
    "name": "Standerton",
    "ascii": "Standerton",
    "state": "Mpumalanga",
    "population": 101101,
    "lat": -26.93366,
    "lon": 29.24152,
    "featureCode": "PPLA3"
  },
  {
    "name": "Mokopane",
    "ascii": "Mokopane",
    "state": "Limpopo",
    "population": 101090,
    "lat": -24.19436,
    "lon": 29.00974,
    "featureCode": "PPLA3"
  },
  {
    "name": "Ermelo",
    "ascii": "Ermelo",
    "state": "Mpumalanga",
    "population": 100324,
    "lat": -26.53333,
    "lon": 29.98333,
    "featureCode": "PPLA3"
  },
  {
    "name": "Stellenbosch",
    "ascii": "Stellenbosch",
    "state": "Western Cape",
    "population": 96228,
    "lat": -33.93462,
    "lon": 18.86676,
    "featureCode": "PPLA3"
  },
  {
    "name": "Kutloanong",
    "ascii": "Kutloanong",
    "state": "Free State",
    "population": 95008,
    "lat": -27.83333,
    "lon": 26.75,
    "featureCode": "PPL"
  },
  {
    "name": "Stilfontein",
    "ascii": "Stilfontein",
    "state": "North West",
    "population": 93110,
    "lat": -26.84493,
    "lon": 26.76829,
    "featureCode": "PPL"
  },
  {
    "name": "Qonce",
    "ascii": "Qonce",
    "state": "Eastern Cape",
    "population": 93072,
    "lat": -32.88076,
    "lon": 27.39377,
    "featureCode": "PPL"
  },
  {
    "name": "Delmas",
    "ascii": "Delmas",
    "state": "Mpumalanga",
    "population": 92046,
    "lat": -26.1466,
    "lon": 28.68322,
    "featureCode": "PPLA3"
  },
  {
    "name": "Grahamstown",
    "ascii": "Grahamstown",
    "state": "Eastern Cape",
    "population": 91548,
    "lat": -33.30422,
    "lon": 26.53276,
    "featureCode": "PPLA3"
  },
  {
    "name": "Bethlehem",
    "ascii": "Bethlehem",
    "state": "Free State",
    "population": 91075,
    "lat": -28.23078,
    "lon": 28.30707,
    "featureCode": "PPLA3"
  },
  {
    "name": "Ga-Rankuwa",
    "ascii": "Ga-Rankuwa",
    "state": "North West",
    "population": 90945,
    "lat": -25.61692,
    "lon": 27.99471,
    "featureCode": "PPL"
  },
  {
    "name": "Bela Bela",
    "ascii": "Bela Bela",
    "state": "Limpopo",
    "population": 90210,
    "lat": -24.88333,
    "lon": 28.28333,
    "featureCode": "PPL"
  },
  {
    "name": "Midrand",
    "ascii": "Midrand",
    "state": "Gauteng",
    "population": 87387,
    "lat": -25.976,
    "lon": 28.118,
    "featureCode": "PPL"
  },
  {
    "name": "Louis Trichardt",
    "ascii": "Louis Trichardt",
    "state": "Limpopo",
    "population": 86854,
    "lat": -23.04385,
    "lon": 29.90319,
    "featureCode": "PPLA3"
  },
  {
    "name": "Heidelberg",
    "ascii": "Heidelberg",
    "state": "Gauteng",
    "population": 85858,
    "lat": -26.50476,
    "lon": 28.35921,
    "featureCode": "PPLA3"
  },
  {
    "name": "Dundee",
    "ascii": "Dundee",
    "state": "KwaZulu-Natal",
    "population": 84413,
    "lat": -28.16678,
    "lon": 30.23371,
    "featureCode": "PPLA2"
  },
  {
    "name": "Piet Retief",
    "ascii": "Piet Retief",
    "state": "Mpumalanga",
    "population": 84349,
    "lat": -27.00706,
    "lon": 30.81323,
    "featureCode": "PPLA3"
  },
  {
    "name": "Phuthaditjhaba",
    "ascii": "Phuthaditjhaba",
    "state": "Free State",
    "population": 84258,
    "lat": -28.52423,
    "lon": 28.81582,
    "featureCode": "PPLA2"
  },
  {
    "name": "Atlantis",
    "ascii": "Atlantis",
    "state": "Western Cape",
    "population": 82736,
    "lat": -33.56668,
    "lon": 18.48335,
    "featureCode": "PPL"
  },
  {
    "name": "Mossel Bay",
    "ascii": "Mossel Bay",
    "state": "Western Cape",
    "population": 78940,
    "lat": -34.18307,
    "lon": 22.14605,
    "featureCode": "PPLA3"
  },
  {
    "name": "Mafikeng",
    "ascii": "Mafikeng",
    "state": "North West",
    "population": 77110,
    "lat": -25.86522,
    "lon": 25.64421,
    "featureCode": "PPLA"
  },
  {
    "name": "Mmabatho",
    "ascii": "Mmabatho",
    "state": "North West",
    "population": 76754,
    "lat": -25.85,
    "lon": 25.63333,
    "featureCode": "PPLX"
  },
  {
    "name": "Odendaalsrus",
    "ascii": "Odendaalsrus",
    "state": "Free State",
    "population": 76371,
    "lat": -27.87394,
    "lon": 26.69072,
    "featureCode": "PPL"
  },
  {
    "name": "Oudtshoorn",
    "ascii": "Oudtshoorn",
    "state": "Western Cape",
    "population": 73694,
    "lat": -33.60047,
    "lon": 22.19955,
    "featureCode": "PPLA3"
  },
  {
    "name": "Bethal",
    "ascii": "Bethal",
    "state": "Mpumalanga",
    "population": 72821,
    "lat": -26.45794,
    "lon": 29.46553,
    "featureCode": "PPL"
  },
  {
    "name": "Thaba Nchu",
    "ascii": "Thaba Nchu",
    "state": "Free State",
    "population": 72721,
    "lat": -29.20932,
    "lon": 26.83898,
    "featureCode": "PPL"
  },
  {
    "name": "Bothaville",
    "ascii": "Bothaville",
    "state": "Free State",
    "population": 71934,
    "lat": -27.3887,
    "lon": 26.61701,
    "featureCode": "PPLA3"
  },
  {
    "name": "Upington",
    "ascii": "Upington",
    "state": "Northern Cape",
    "population": 71373,
    "lat": -28.44776,
    "lon": 21.25612,
    "featureCode": "PPLA2"
  },
  {
    "name": "Parys",
    "ascii": "Parys",
    "state": "Free State",
    "population": 71319,
    "lat": -26.9033,
    "lon": 27.45727,
    "featureCode": "PPLA3"
  },
  {
    "name": "Schweizer-Reneke",
    "ascii": "Schweizer-Reneke",
    "state": "North West",
    "population": 70214,
    "lat": -27.18871,
    "lon": 25.32931,
    "featureCode": "PPLA3"
  },
  {
    "name": "Knysna",
    "ascii": "Knysna",
    "state": "Western Cape",
    "population": 68659,
    "lat": -34.03627,
    "lon": 23.04713,
    "featureCode": "PPLA3"
  },
  {
    "name": "Saldanha",
    "ascii": "Saldanha",
    "state": "Western Cape",
    "population": 68284,
    "lat": -33.01167,
    "lon": 17.9442,
    "featureCode": "PPL"
  },
  {
    "name": "Barberton",
    "ascii": "Barberton",
    "state": "Mpumalanga",
    "population": 67927,
    "lat": -25.78842,
    "lon": 31.05319,
    "featureCode": "PPLA3"
  },
  {
    "name": "Lichtenburg",
    "ascii": "Lichtenburg",
    "state": "North West",
    "population": 65863,
    "lat": -26.152,
    "lon": 26.15968,
    "featureCode": "PPLA3"
  },
  {
    "name": "Tongaat",
    "ascii": "Tongaat",
    "state": "KwaZulu-Natal",
    "population": 64829,
    "lat": -29.57366,
    "lon": 31.11552,
    "featureCode": "PPL"
  },
  {
    "name": "Graaff Reinet",
    "ascii": "Graaff Reinet",
    "state": "Eastern Cape",
    "population": 62896,
    "lat": -32.25215,
    "lon": 24.53075,
    "featureCode": "PPLA3"
  },
  {
    "name": "Fochville",
    "ascii": "Fochville",
    "state": "North West",
    "population": 62416,
    "lat": -26.48862,
    "lon": 27.49387,
    "featureCode": "PPL"
  },
  {
    "name": "Kokstad",
    "ascii": "Kokstad",
    "state": "KwaZulu-Natal",
    "population": 61751,
    "lat": -30.54723,
    "lon": 29.42412,
    "featureCode": "PPLA3"
  },
  {
    "name": "Fort Beaufort",
    "ascii": "Fort Beaufort",
    "state": "Eastern Cape",
    "population": 58419,
    "lat": -32.77477,
    "lon": 26.63376,
    "featureCode": "PPLA3"
  },
  {
    "name": "Ekangala",
    "ascii": "Ekangala",
    "state": "Gauteng",
    "population": 58099,
    "lat": -25.668,
    "lon": 28.73,
    "featureCode": "PPL"
  },
  {
    "name": "Kraaifontein",
    "ascii": "Kraaifontein",
    "state": "Western Cape",
    "population": 57911,
    "lat": -33.84808,
    "lon": 18.71723,
    "featureCode": "PPL"
  },
  {
    "name": "Hermanus",
    "ascii": "Hermanus",
    "state": "Western Cape",
    "population": 56139,
    "lat": -34.4187,
    "lon": 19.23446,
    "featureCode": "PPLA3"
  },
  {
    "name": "Vryburg",
    "ascii": "Vryburg",
    "state": "North West",
    "population": 55879,
    "lat": -26.95659,
    "lon": 24.7284,
    "featureCode": "PPLA2"
  },
  {
    "name": "Wellington",
    "ascii": "Wellington",
    "state": "Western Cape",
    "population": 55543,
    "lat": -33.63981,
    "lon": 19.0112,
    "featureCode": "PPL"
  },
  {
    "name": "Viljoenskroon",
    "ascii": "Viljoenskroon",
    "state": "Free State",
    "population": 54955,
    "lat": -27.20841,
    "lon": 26.94855,
    "featureCode": "PPL"
  },
  {
    "name": "Durbanville",
    "ascii": "Durbanville",
    "state": "Western Cape",
    "population": 54286,
    "lat": -33.83079,
    "lon": 18.6486,
    "featureCode": "PPL"
  },
  {
    "name": "Kwaggafontein",
    "ascii": "Kwaggafontein",
    "state": "Mpumalanga",
    "population": 54040,
    "lat": -25.32729,
    "lon": 28.94224,
    "featureCode": "PPL"
  },
  {
    "name": "Mondlo",
    "ascii": "Mondlo",
    "state": "KwaZulu-Natal",
    "population": 53892,
    "lat": -27.98299,
    "lon": 30.71769,
    "featureCode": "PPL"
  },
  {
    "name": "Butterworth",
    "ascii": "Butterworth",
    "state": "Eastern Cape",
    "population": 53086,
    "lat": -32.33083,
    "lon": 28.14981,
    "featureCode": "PPL"
  },
  {
    "name": "Port Shepstone",
    "ascii": "Port Shepstone",
    "state": "KwaZulu-Natal",
    "population": 52793,
    "lat": -30.74137,
    "lon": 30.45499,
    "featureCode": "PPLA2"
  },
  {
    "name": "Trichardt",
    "ascii": "Trichardt",
    "state": "Mpumalanga",
    "population": 52776,
    "lat": -26.49155,
    "lon": 29.22878,
    "featureCode": "PPL"
  },
  {
    "name": "Nkowakowa",
    "ascii": "Nkowakowa",
    "state": "Limpopo",
    "population": 51350,
    "lat": -23.88782,
    "lon": 30.28708,
    "featureCode": "PPL"
  },
  {
    "name": "Musina",
    "ascii": "Musina",
    "state": "Limpopo",
    "population": 51132,
    "lat": -22.34881,
    "lon": 30.04074,
    "featureCode": "PPLA3"
  },
  {
    "name": "Modimolle",
    "ascii": "Modimolle",
    "state": "Limpopo",
    "population": 50306,
    "lat": -24.7,
    "lon": 28.4,
    "featureCode": "PPLA2"
  },
  {
    "name": "Letlhabile",
    "ascii": "Letlhabile",
    "state": "North West",
    "population": 49718,
    "lat": -25.48238,
    "lon": 27.83925,
    "featureCode": "PPL"
  },
  {
    "name": "Lydenburg",
    "ascii": "Lydenburg",
    "state": "Mpumalanga",
    "population": 49605,
    "lat": -25.09598,
    "lon": 30.44393,
    "featureCode": "PPLA3"
  },
  {
    "name": "Mankweng",
    "ascii": "Mankweng",
    "state": "Limpopo",
    "population": 49480,
    "lat": -23.88384,
    "lon": 29.70557,
    "featureCode": "PPL"
  },
  {
    "name": "Ficksburg",
    "ascii": "Ficksburg",
    "state": "Free State",
    "population": 49420,
    "lat": -28.872,
    "lon": 27.87506,
    "featureCode": "PPLA3"
  },
  {
    "name": "Wolmaransstad",
    "ascii": "Wolmaransstad",
    "state": "North West",
    "population": 49366,
    "lat": -27.1974,
    "lon": 25.98311,
    "featureCode": "PPLA3"
  },
  {
    "name": "Edenvale",
    "ascii": "Edenvale",
    "state": "Gauteng",
    "population": 49292,
    "lat": -26.14095,
    "lon": 28.15247,
    "featureCode": "PPL"
  },
  {
    "name": "eSikhaleni",
    "ascii": "eSikhaleni",
    "state": "KwaZulu-Natal",
    "population": 49265,
    "lat": -28.87097,
    "lon": 31.89961,
    "featureCode": "PPL"
  },
  {
    "name": "Matsulu",
    "ascii": "Matsulu",
    "state": "Mpumalanga",
    "population": 47306,
    "lat": -25.52297,
    "lon": 31.35693,
    "featureCode": "PPL"
  },
  {
    "name": "Kuils River",
    "ascii": "Kuils River",
    "state": "Western Cape",
    "population": 46685,
    "lat": -33.94208,
    "lon": 18.70663,
    "featureCode": "PPL"
  },
  {
    "name": "Balfour",
    "ascii": "Balfour",
    "state": "Mpumalanga",
    "population": 46008,
    "lat": -26.66331,
    "lon": 28.59016,
    "featureCode": "PPLA3"
  },
  {
    "name": "Vredenburg",
    "ascii": "Vredenburg",
    "state": "Western Cape",
    "population": 45986,
    "lat": -32.90719,
    "lon": 17.98997,
    "featureCode": "PPLA3"
  },
  {
    "name": "Beaufort West",
    "ascii": "Beaufort West",
    "state": "Western Cape",
    "population": 44737,
    "lat": -32.35671,
    "lon": 22.58295,
    "featureCode": "PPLA2"
  },
  {
    "name": "Aliwal North",
    "ascii": "Aliwal North",
    "state": "Eastern Cape",
    "population": 44436,
    "lat": -30.69366,
    "lon": 26.71141,
    "featureCode": "PPLA3"
  },
  {
    "name": "Siyabuswa",
    "ascii": "Siyabuswa",
    "state": "Mpumalanga",
    "population": 44189,
    "lat": -25.11319,
    "lon": 29.04454,
    "featureCode": "PPLA3"
  },
  {
    "name": "Cradock",
    "ascii": "Cradock",
    "state": "Eastern Cape",
    "population": 43936,
    "lat": -32.16422,
    "lon": 25.61918,
    "featureCode": "PPLA3"
  },
  {
    "name": "Volksrust",
    "ascii": "Volksrust",
    "state": "Mpumalanga",
    "population": 43378,
    "lat": -27.36541,
    "lon": 29.88175,
    "featureCode": "PPLA3"
  },
  {
    "name": "Malmesbury",
    "ascii": "Malmesbury",
    "state": "Western Cape",
    "population": 43009,
    "lat": -33.4608,
    "lon": 18.72714,
    "featureCode": "PPLA3"
  },
  {
    "name": "Mkhuhlu",
    "ascii": "Mkhuhlu",
    "state": "Mpumalanga",
    "population": 42969,
    "lat": -24.98776,
    "lon": 31.2385,
    "featureCode": "PPL"
  },
  {
    "name": "Wesselsbron",
    "ascii": "Wesselsbron",
    "state": "Free State",
    "population": 42552,
    "lat": -27.8549,
    "lon": 26.36583,
    "featureCode": "PPL"
  },
  {
    "name": "Lebowakgomo",
    "ascii": "Lebowakgomo",
    "state": "Limpopo",
    "population": 42040,
    "lat": -24.31457,
    "lon": 29.50078,
    "featureCode": "PPL"
  },
  {
    "name": "Ceres",
    "ascii": "Ceres",
    "state": "Western Cape",
    "population": 41596,
    "lat": -33.36889,
    "lon": 19.31095,
    "featureCode": "PPLA3"
  },
  {
    "name": "Bronkhorstspruit",
    "ascii": "Bronkhorstspruit",
    "state": "Gauteng",
    "population": 41209,
    "lat": -25.81015,
    "lon": 28.74248,
    "featureCode": "PPL"
  },
  {
    "name": "Senekal",
    "ascii": "Senekal",
    "state": "Free State",
    "population": 39584,
    "lat": -28.31971,
    "lon": 27.62082,
    "featureCode": "PPL"
  },
  {
    "name": "Leslie",
    "ascii": "Leslie",
    "state": "Mpumalanga",
    "population": 39514,
    "lat": -26.36737,
    "lon": 28.9189,
    "featureCode": "PPL"
  },
  {
    "name": "Phola",
    "ascii": "Phola",
    "state": "Mpumalanga",
    "population": 38202,
    "lat": -26.002,
    "lon": 29.034,
    "featureCode": "PPLX"
  },
  {
    "name": "Plettenberg Bay",
    "ascii": "Plettenberg Bay",
    "state": "Western Cape",
    "population": 38126,
    "lat": -34.05274,
    "lon": 23.3716,
    "featureCode": "PPLA3"
  },
  {
    "name": "Mandeni",
    "ascii": "Mandeni",
    "state": "KwaZulu-Natal",
    "population": 37533,
    "lat": -29.14691,
    "lon": 31.41403,
    "featureCode": "PPLA3"
  },
  {
    "name": "Grabouw",
    "ascii": "Grabouw",
    "state": "Western Cape",
    "population": 37490,
    "lat": -34.15152,
    "lon": 19.01509,
    "featureCode": "PPL"
  },
  {
    "name": "Lukwatini",
    "ascii": "Lukwatini",
    "state": "Mpumalanga",
    "population": 37362,
    "lat": -26.05501,
    "lon": 30.82292,
    "featureCode": "PPL"
  },
  {
    "name": "Giyani",
    "ascii": "Giyani",
    "state": "Limpopo",
    "population": 37024,
    "lat": -23.30246,
    "lon": 30.71868,
    "featureCode": "PPLA2"
  },
  {
    "name": "Muizenberg",
    "ascii": "Muizenberg",
    "state": "Western Cape",
    "population": 36857,
    "lat": -34.09702,
    "lon": 18.47969,
    "featureCode": "PPL"
  },
  {
    "name": "Folweni",
    "ascii": "Folweni",
    "state": "KwaZulu-Natal",
    "population": 36425,
    "lat": -29.99569,
    "lon": 30.80724,
    "featureCode": "PPLX"
  },
  {
    "name": "Calcutta",
    "ascii": "Calcutta",
    "state": "Mpumalanga",
    "population": 35864,
    "lat": -24.98317,
    "lon": 31.23485,
    "featureCode": "PPL"
  },
  {
    "name": "Stutterheim",
    "ascii": "Stutterheim",
    "state": "Eastern Cape",
    "population": 35510,
    "lat": -32.57076,
    "lon": 27.42396,
    "featureCode": "PPLA3"
  },
  {
    "name": "Dwarsloop",
    "ascii": "Dwarsloop",
    "state": "Limpopo",
    "population": 35397,
    "lat": -24.79456,
    "lon": 31.10277,
    "featureCode": "PPL"
  },
  {
    "name": "Humansdorp",
    "ascii": "Humansdorp",
    "state": "Eastern Cape",
    "population": 34733,
    "lat": -34.02903,
    "lon": 24.76912,
    "featureCode": "PPL"
  },
  {
    "name": "Theunissen",
    "ascii": "Theunissen",
    "state": "Free State",
    "population": 34718,
    "lat": -28.41098,
    "lon": 26.70107,
    "featureCode": "PPLA3"
  },
  {
    "name": "Thabazimbi",
    "ascii": "Thabazimbi",
    "state": "Limpopo",
    "population": 34561,
    "lat": -24.59165,
    "lon": 27.41155,
    "featureCode": "PPLA3"
  },
  {
    "name": "Margate",
    "ascii": "Margate",
    "state": "KwaZulu-Natal",
    "population": 34407,
    "lat": -30.8636,
    "lon": 30.37052,
    "featureCode": "PPL"
  },
  {
    "name": "Cullinan",
    "ascii": "Cullinan",
    "state": "Gauteng",
    "population": 34087,
    "lat": -25.67088,
    "lon": 28.52364,
    "featureCode": "PPL"
  },
  {
    "name": "Wembesi",
    "ascii": "Wembesi",
    "state": "KwaZulu-Natal",
    "population": 33849,
    "lat": -29.04912,
    "lon": 29.78232,
    "featureCode": "PPL"
  },
  {
    "name": "Whittlesea",
    "ascii": "Whittlesea",
    "state": "Eastern Cape",
    "population": 33844,
    "lat": -32.17588,
    "lon": 26.82437,
    "featureCode": "PPL"
  },
  {
    "name": "Acornhoek",
    "ascii": "Acornhoek",
    "state": "Limpopo",
    "population": 33529,
    "lat": -24.5878,
    "lon": 31.09467,
    "featureCode": "PPL"
  },
  {
    "name": "Bloemhof",
    "ascii": "Bloemhof",
    "state": "North West",
    "population": 33432,
    "lat": -27.64685,
    "lon": 25.60697,
    "featureCode": "PPL"
  },
  {
    "name": "Harrismith",
    "ascii": "Harrismith",
    "state": "Free State",
    "population": 33390,
    "lat": -28.27276,
    "lon": 29.12946,
    "featureCode": "PPL"
  },
  {
    "name": "Robertson",
    "ascii": "Robertson",
    "state": "Western Cape",
    "population": 33204,
    "lat": -33.80342,
    "lon": 19.88537,
    "featureCode": "PPL"
  },
  {
    "name": "Mtubatuba",
    "ascii": "Mtubatuba",
    "state": "KwaZulu-Natal",
    "population": 33182,
    "lat": -28.41789,
    "lon": 32.18483,
    "featureCode": "PPLA3"
  },
  {
    "name": "Empangeni",
    "ascii": "Empangeni",
    "state": "KwaZulu-Natal",
    "population": 33075,
    "lat": -28.76197,
    "lon": 31.89329,
    "featureCode": "PPL"
  },
  {
    "name": "Heilbron",
    "ascii": "Heilbron",
    "state": "Free State",
    "population": 32836,
    "lat": -27.28115,
    "lon": 27.9709,
    "featureCode": "PPL"
  },
  {
    "name": "Jeffreys Bay",
    "ascii": "Jeffreys Bay",
    "state": "Eastern Cape",
    "population": 32477,
    "lat": -34.04526,
    "lon": 24.92146,
    "featureCode": "PPL"
  },
  {
    "name": "Howick",
    "ascii": "Howick",
    "state": "KwaZulu-Natal",
    "population": 32453,
    "lat": -29.47795,
    "lon": 30.23057,
    "featureCode": "PPLA3"
  },
  {
    "name": "Richmond",
    "ascii": "Richmond",
    "state": "KwaZulu-Natal",
    "population": 32445,
    "lat": -29.87196,
    "lon": 30.27235,
    "featureCode": "PPLA3"
  },
  {
    "name": "De Aar",
    "ascii": "De Aar",
    "state": "Northern Cape",
    "population": 32318,
    "lat": -30.64966,
    "lon": 24.0123,
    "featureCode": "PPLA2"
  },
  {
    "name": "Ulundi",
    "ascii": "Ulundi",
    "state": "KwaZulu-Natal",
    "population": 31795,
    "lat": -28.33523,
    "lon": 31.41617,
    "featureCode": "PPLA2"
  },
  {
    "name": "Allanridge",
    "ascii": "Allanridge",
    "state": "Free State",
    "population": 31700,
    "lat": -27.75431,
    "lon": 26.64382,
    "featureCode": "PPL"
  },
  {
    "name": "Hartbeestfontein-A",
    "ascii": "Hartbeestfontein-A",
    "state": "North West",
    "population": 31554,
    "lat": -25.44141,
    "lon": 27.51114,
    "featureCode": "PPL"
  },
  {
    "name": "Lebohang",
    "ascii": "Lebohang",
    "state": "Mpumalanga",
    "population": 31553,
    "lat": -26.37945,
    "lon": 28.92112,
    "featureCode": "PPL"
  },
  {
    "name": "Marapong",
    "ascii": "Marapong",
    "state": "Limpopo",
    "population": 31424,
    "lat": -23.65506,
    "lon": 27.62495,
    "featureCode": "PPLL"
  },
  {
    "name": "Frankfort",
    "ascii": "Frankfort",
    "state": "Free State",
    "population": 31323,
    "lat": -27.27888,
    "lon": 28.49696,
    "featureCode": "PPLA3"
  },
  {
    "name": "Port Alfred",
    "ascii": "Port Alfred",
    "state": "Eastern Cape",
    "population": 30981,
    "lat": -33.58601,
    "lon": 26.88329,
    "featureCode": "PPLA3"
  },
  {
    "name": "Ladybrand",
    "ascii": "Ladybrand",
    "state": "Free State",
    "population": 30930,
    "lat": -29.19448,
    "lon": 27.45739,
    "featureCode": "PPLA3"
  },
  {
    "name": "Mpophomeni",
    "ascii": "Mpophomeni",
    "state": "KwaZulu-Natal",
    "population": 30830,
    "lat": -29.56822,
    "lon": 30.18618,
    "featureCode": "PPL"
  },
  {
    "name": "Postmasburg",
    "ascii": "Postmasburg",
    "state": "Northern Cape",
    "population": 30089,
    "lat": -28.33392,
    "lon": 23.06541,
    "featureCode": "PPLA3"
  },
  {
    "name": "Mookgophong",
    "ascii": "Mookgophong",
    "state": "Limpopo",
    "population": 29778,
    "lat": -24.51667,
    "lon": 28.71667,
    "featureCode": "PPL"
  },
  {
    "name": "Nhlazatje",
    "ascii": "Nhlazatje",
    "state": "Mpumalanga",
    "population": 28224,
    "lat": -26.04027,
    "lon": 30.79268,
    "featureCode": "PPL"
  },
  {
    "name": "Driefontein",
    "ascii": "Driefontein",
    "state": "Mpumalanga",
    "population": 28127,
    "lat": -26.96501,
    "lon": 30.43571,
    "featureCode": "PPL"
  },
  {
    "name": "Bultfontein",
    "ascii": "Bultfontein",
    "state": "Free State",
    "population": 27994,
    "lat": -28.28756,
    "lon": 26.14996,
    "featureCode": "PPLA3"
  },
  {
    "name": "Ballitoville",
    "ascii": "Ballitoville",
    "state": "KwaZulu-Natal",
    "population": 27718,
    "lat": -29.53897,
    "lon": 31.21439,
    "featureCode": "PPL"
  },
  {
    "name": "Shakaskraal",
    "ascii": "Shakaskraal",
    "state": "KwaZulu-Natal",
    "population": 27345,
    "lat": -29.44931,
    "lon": 31.21532,
    "featureCode": "PPL"
  },
  {
    "name": "Hendrina",
    "ascii": "Hendrina",
    "state": "Mpumalanga",
    "population": 27300,
    "lat": -26.15881,
    "lon": 29.71528,
    "featureCode": "PPL"
  },
  {
    "name": "Hartbeespoort",
    "ascii": "Hartbeespoort",
    "state": "North West",
    "population": 26732,
    "lat": -25.7287,
    "lon": 27.87,
    "featureCode": "PPL"
  },
  {
    "name": "Praktiseer",
    "ascii": "Praktiseer",
    "state": "Limpopo",
    "population": 26675,
    "lat": -24.58398,
    "lon": 30.31684,
    "featureCode": "PPL"
  },
  {
    "name": "Ventersdorp",
    "ascii": "Ventersdorp",
    "state": "North West",
    "population": 26446,
    "lat": -26.31401,
    "lon": 26.82223,
    "featureCode": "PPLA3"
  },
  {
    "name": "Estcourt",
    "ascii": "Estcourt",
    "state": "KwaZulu-Natal",
    "population": 26444,
    "lat": -29.01269,
    "lon": 29.86619,
    "featureCode": "PPLA3"
  },
  {
    "name": "Dimbaza",
    "ascii": "Dimbaza",
    "state": "Eastern Cape",
    "population": 26099,
    "lat": -32.83483,
    "lon": 27.21742,
    "featureCode": "PPL"
  },
  {
    "name": "Retreat",
    "ascii": "Retreat",
    "state": "Western Cape",
    "population": 25745,
    "lat": -34.05515,
    "lon": 18.47617,
    "featureCode": "PPL"
  },
  {
    "name": "White River",
    "ascii": "White River",
    "state": "Mpumalanga",
    "population": 25607,
    "lat": -25.33177,
    "lon": 31.01166,
    "featureCode": "PPL"
  },
  {
    "name": "Amandelbult",
    "ascii": "Amandelbult",
    "state": "Limpopo",
    "population": 25587,
    "lat": -24.81811,
    "lon": 27.29659,
    "featureCode": "PPL"
  },
  {
    "name": "Kamaqhekeza",
    "ascii": "Kamaqhekeza",
    "state": "Mpumalanga",
    "population": 25390,
    "lat": -25.67031,
    "lon": 31.86288,
    "featureCode": "PPL"
  },
  {
    "name": "Lady Frere",
    "ascii": "Lady Frere",
    "state": "Eastern Cape",
    "population": 25041,
    "lat": -31.70312,
    "lon": 27.2329,
    "featureCode": "PPLA3"
  },
  {
    "name": "Christiana",
    "ascii": "Christiana",
    "state": "North West",
    "population": 25019,
    "lat": -27.91402,
    "lon": 25.16111,
    "featureCode": "PPLA3"
  },
  {
    "name": "Midstream",
    "ascii": "Midstream",
    "state": "Gauteng",
    "population": 25000,
    "lat": -25.91849,
    "lon": 28.19881,
    "featureCode": "PPL"
  },
  {
    "name": "Phomolong",
    "ascii": "Phomolong",
    "state": "Free State",
    "population": 24635,
    "lat": -28.01274,
    "lon": 27.08234,
    "featureCode": "PPL"
  },
  {
    "name": "Duiwelskloof",
    "ascii": "Duiwelskloof",
    "state": "Limpopo",
    "population": 24572,
    "lat": -23.69339,
    "lon": 30.14002,
    "featureCode": "PPL"
  },
  {
    "name": "Reitz",
    "ascii": "Reitz",
    "state": "Free State",
    "population": 24181,
    "lat": -27.80138,
    "lon": 28.42726,
    "featureCode": "PPLA3"
  },
  {
    "name": "Scottburgh",
    "ascii": "Scottburgh",
    "state": "KwaZulu-Natal",
    "population": 23949,
    "lat": -30.28666,
    "lon": 30.75316,
    "featureCode": "PPLA3"
  },
  {
    "name": "Itsoseng",
    "ascii": "Itsoseng",
    "state": "North West",
    "population": 23913,
    "lat": -26.08159,
    "lon": 25.88124,
    "featureCode": "PPL"
  },
  {
    "name": "Gonubie",
    "ascii": "Gonubie",
    "state": "Eastern Cape",
    "population": 23733,
    "lat": -32.94433,
    "lon": 28.01496,
    "featureCode": "PPL"
  },
  {
    "name": "Marikana",
    "ascii": "Marikana",
    "state": "North West",
    "population": 23389,
    "lat": -25.699,
    "lon": 27.47475,
    "featureCode": "PPL"
  },
  {
    "name": "Koster",
    "ascii": "Koster",
    "state": "North West",
    "population": 23361,
    "lat": -25.86301,
    "lon": 26.89756,
    "featureCode": "PPLA3"
  },
  {
    "name": "Deneysville",
    "ascii": "Deneysville",
    "state": "Free State",
    "population": 23337,
    "lat": -26.8908,
    "lon": 28.09707,
    "featureCode": "PPL"
  },
  {
    "name": "Schoemansdal",
    "ascii": "Schoemansdal",
    "state": "Mpumalanga",
    "population": 23257,
    "lat": -25.70866,
    "lon": 31.51025,
    "featureCode": "PPL"
  },
  {
    "name": "Redhill",
    "ascii": "Redhill",
    "state": "Mpumalanga",
    "population": 23153,
    "lat": -26.26074,
    "lon": 30.82545,
    "featureCode": "PPL"
  },
  {
    "name": "Greytown",
    "ascii": "Greytown",
    "state": "KwaZulu-Natal",
    "population": 23139,
    "lat": -29.06415,
    "lon": 30.59279,
    "featureCode": "PPLA3"
  },
  {
    "name": "Hennenman",
    "ascii": "Hennenman",
    "state": "Free State",
    "population": 22847,
    "lat": -27.97654,
    "lon": 27.02423,
    "featureCode": "PPL"
  },
  {
    "name": "Somerset East",
    "ascii": "Somerset East",
    "state": "Eastern Cape",
    "population": 22553,
    "lat": -32.72173,
    "lon": 25.58804,
    "featureCode": "PPLA3"
  },
  {
    "name": "Middelburg",
    "ascii": "Middelburg",
    "state": "Eastern Cape",
    "population": 22380,
    "lat": -31.49285,
    "lon": 25.00633,
    "featureCode": "PPL"
  },
  {
    "name": "Hartbeesfontein",
    "ascii": "Hartbeesfontein",
    "state": "North West",
    "population": 22294,
    "lat": -26.76566,
    "lon": 26.42024,
    "featureCode": "PPL"
  },
  {
    "name": "Moloto South",
    "ascii": "Moloto South",
    "state": "Mpumalanga",
    "population": 22076,
    "lat": -25.46279,
    "lon": 28.65041,
    "featureCode": "PPL"
  },
  {
    "name": "Ottosdal",
    "ascii": "Ottosdal",
    "state": "North West",
    "population": 22011,
    "lat": -26.80908,
    "lon": 26.00538,
    "featureCode": "PPL"
  },
  {
    "name": "Vredendal",
    "ascii": "Vredendal",
    "state": "Western Cape",
    "population": 21769,
    "lat": -31.66833,
    "lon": 18.50119,
    "featureCode": "PPLA3"
  },
  {
    "name": "Mooi River",
    "ascii": "Mooi River",
    "state": "KwaZulu-Natal",
    "population": 21730,
    "lat": -29.20824,
    "lon": 29.9946,
    "featureCode": "PPL"
  },
  {
    "name": "Pampierstad",
    "ascii": "Pampierstad",
    "state": "Northern Cape",
    "population": 21707,
    "lat": -27.78324,
    "lon": 24.68768,
    "featureCode": "PPL"
  },
  {
    "name": "Hlanganani",
    "ascii": "Hlanganani",
    "state": "Mpumalanga",
    "population": 21506,
    "lat": -24.95911,
    "lon": 31.17025,
    "featureCode": "PPL"
  },
  {
    "name": "Verena",
    "ascii": "Verena",
    "state": "Gauteng",
    "population": 21252,
    "lat": -25.48251,
    "lon": 29.02763,
    "featureCode": "PPL"
  },
  {
    "name": "Vrede",
    "ascii": "Vrede",
    "state": "Free State",
    "population": 21193,
    "lat": -27.42573,
    "lon": 29.16585,
    "featureCode": "PPLA3"
  },
  {
    "name": "Lephalale",
    "ascii": "Lephalale",
    "state": "Limpopo",
    "population": 21133,
    "lat": -23.66607,
    "lon": 27.74477,
    "featureCode": "PPLA3"
  },
  {
    "name": "Hlohlolwane",
    "ascii": "Hlohlolwane",
    "state": "Free State",
    "population": 21089,
    "lat": -28.91588,
    "lon": 27.56957,
    "featureCode": "PPL"
  },
  {
    "name": "Glencoe",
    "ascii": "Glencoe",
    "state": "KwaZulu-Natal",
    "population": 21024,
    "lat": -28.17827,
    "lon": 30.14702,
    "featureCode": "PPL"
  },
  {
    "name": "Swellendam",
    "ascii": "Swellendam",
    "state": "Western Cape",
    "population": 20993,
    "lat": -34.02262,
    "lon": 20.44171,
    "featureCode": "PPLA3"
  },
  {
    "name": "Villiers",
    "ascii": "Villiers",
    "state": "Free State",
    "population": 20745,
    "lat": -27.03026,
    "lon": 28.60061,
    "featureCode": "PPL"
  },
  {
    "name": "Coligny",
    "ascii": "Coligny",
    "state": "North West",
    "population": 20701,
    "lat": -26.33172,
    "lon": 26.32065,
    "featureCode": "PPL"
  },
  {
    "name": "Komatipoort",
    "ascii": "Komatipoort",
    "state": "Mpumalanga",
    "population": 20508,
    "lat": -25.43321,
    "lon": 31.95478,
    "featureCode": "PPL"
  },
  {
    "name": "Secunda",
    "ascii": "Secunda",
    "state": "Mpumalanga",
    "population": 20418,
    "lat": -26.55,
    "lon": 29.16667,
    "featureCode": "PPLA2"
  },
  {
    "name": "eMkhomazi",
    "ascii": "eMkhomazi",
    "state": "KwaZulu-Natal",
    "population": 20410,
    "lat": -30.20672,
    "lon": 30.79641,
    "featureCode": "PPL"
  },
  {
    "name": "Mafemani",
    "ascii": "Mafemani",
    "state": "Mpumalanga",
    "population": 20389,
    "lat": -24.78864,
    "lon": 31.07938,
    "featureCode": "PPL"
  },
  {
    "name": "Carolina",
    "ascii": "Carolina",
    "state": "Mpumalanga",
    "population": 20184,
    "lat": -26.06927,
    "lon": 30.11489,
    "featureCode": "PPLA3"
  },
  {
    "name": "Belfast",
    "ascii": "Belfast",
    "state": "Mpumalanga",
    "population": 20036,
    "lat": -25.68991,
    "lon": 30.03504,
    "featureCode": "PPLA3"
  },
  {
    "name": "Queensdale",
    "ascii": "Queensdale",
    "state": "Eastern Cape",
    "population": 20009,
    "lat": -31.87101,
    "lon": 26.97862,
    "featureCode": "PPL"
  },
  {
    "name": "Franschhoek",
    "ascii": "Franschhoek",
    "state": "Western Cape",
    "population": 20000,
    "lat": -33.91075,
    "lon": 19.1198,
    "featureCode": "PPL"
  },
  {
    "name": "Vaalwater",
    "ascii": "Vaalwater",
    "state": "Limpopo",
    "population": 19723,
    "lat": -24.2957,
    "lon": 28.11415,
    "featureCode": "PPL"
  },
  {
    "name": "Ncotshane",
    "ascii": "Ncotshane",
    "state": "KwaZulu-Natal",
    "population": 19562,
    "lat": -27.342,
    "lon": 31.58,
    "featureCode": "PPL"
  },
  {
    "name": "Vaalbank",
    "ascii": "Vaalbank",
    "state": "Mpumalanga",
    "population": 19517,
    "lat": -25.15226,
    "lon": 28.85563,
    "featureCode": "PPL"
  },
  {
    "name": "eMuziwezinto",
    "ascii": "eMuziwezinto",
    "state": "KwaZulu-Natal",
    "population": 19415,
    "lat": -30.31002,
    "lon": 30.66275,
    "featureCode": "PPL"
  },
  {
    "name": "Riversdale",
    "ascii": "Riversdale",
    "state": "Western Cape",
    "population": 19382,
    "lat": -34.09345,
    "lon": 21.25725,
    "featureCode": "PPLA3"
  },
  {
    "name": "Hoopstad",
    "ascii": "Hoopstad",
    "state": "Free State",
    "population": 19209,
    "lat": -27.83273,
    "lon": 25.90833,
    "featureCode": "PPL"
  },
  {
    "name": "Burgersdorp",
    "ascii": "Burgersdorp",
    "state": "Eastern Cape",
    "population": 19159,
    "lat": -30.99766,
    "lon": 26.32862,
    "featureCode": "PPLA3"
  },
  {
    "name": "Zeerust",
    "ascii": "Zeerust",
    "state": "North West",
    "population": 19154,
    "lat": -25.53695,
    "lon": 26.07512,
    "featureCode": "PPLA3"
  },
  {
    "name": "Tshitereke",
    "ascii": "Tshitereke",
    "state": "Limpopo",
    "population": 19092,
    "lat": -22.88416,
    "lon": 30.49358,
    "featureCode": "PPL"
  },
  {
    "name": "Kruisfontein",
    "ascii": "Kruisfontein",
    "state": "Eastern Cape",
    "population": 18991,
    "lat": -34.00333,
    "lon": 24.73142,
    "featureCode": "PPL"
  },
  {
    "name": "Sabie",
    "ascii": "Sabie",
    "state": "Mpumalanga",
    "population": 18903,
    "lat": -25.0999,
    "lon": 30.78001,
    "featureCode": "PPL"
  },
  {
    "name": "Zastron",
    "ascii": "Zastron",
    "state": "Free State",
    "population": 18699,
    "lat": -30.30225,
    "lon": 27.08395,
    "featureCode": "PPLA3"
  },
  {
    "name": "Bredasdorp",
    "ascii": "Bredasdorp",
    "state": "Western Cape",
    "population": 18599,
    "lat": -34.53215,
    "lon": 20.04031,
    "featureCode": "PPLA2"
  },
  {
    "name": "Marquard",
    "ascii": "Marquard",
    "state": "Free State",
    "population": 18573,
    "lat": -28.66449,
    "lon": 27.43048,
    "featureCode": "PPL"
  },
  {
    "name": "Driekoppies",
    "ascii": "Driekoppies",
    "state": "Mpumalanga",
    "population": 18498,
    "lat": -25.69776,
    "lon": 31.564,
    "featureCode": "PPL"
  },
  {
    "name": "Clydesdale",
    "ascii": "Clydesdale",
    "state": "Eastern Cape",
    "population": 18357,
    "lat": -30.29831,
    "lon": 29.93772,
    "featureCode": "PPL"
  },
  {
    "name": "Kinross",
    "ascii": "Kinross",
    "state": "Mpumalanga",
    "population": 18266,
    "lat": -26.41663,
    "lon": 29.08668,
    "featureCode": "PPL"
  },
  {
    "name": "Kriel",
    "ascii": "Kriel",
    "state": "Mpumalanga",
    "population": 18255,
    "lat": -26.25,
    "lon": 29.26,
    "featureCode": "PPL"
  },
  {
    "name": "Montagu",
    "ascii": "Montagu",
    "state": "Western Cape",
    "population": 18182,
    "lat": -33.78664,
    "lon": 20.12106,
    "featureCode": "PPL"
  },
  {
    "name": "Ndevana",
    "ascii": "Ndevana",
    "state": "Eastern Cape",
    "population": 18151,
    "lat": -32.90769,
    "lon": 27.50973,
    "featureCode": "PPL"
  },
  {
    "name": "Alice",
    "ascii": "Alice",
    "state": "Eastern Cape",
    "population": 18141,
    "lat": -32.78749,
    "lon": 26.8344,
    "featureCode": "PPL"
  },
  {
    "name": "Groot-Brakrivier",
    "ascii": "Groot-Brakrivier",
    "state": "Western Cape",
    "population": 18008,
    "lat": -34.04368,
    "lon": 22.22574,
    "featureCode": "PPL"
  },
  {
    "name": "Warrenton",
    "ascii": "Warrenton",
    "state": "Northern Cape",
    "population": 17946,
    "lat": -28.11396,
    "lon": 24.84753,
    "featureCode": "PPLA3"
  },
  {
    "name": "Tekwane",
    "ascii": "Tekwane",
    "state": "Mpumalanga",
    "population": 17846,
    "lat": -25.47776,
    "lon": 31.14559,
    "featureCode": "PPL"
  },
  {
    "name": "Tshiame",
    "ascii": "Tshiame",
    "state": "Free State",
    "population": 17800,
    "lat": -28.33057,
    "lon": 28.99087,
    "featureCode": "PPL"
  },
  {
    "name": "Eshowe",
    "ascii": "Eshowe",
    "state": "KwaZulu-Natal",
    "population": 17663,
    "lat": -28.88649,
    "lon": 31.4699,
    "featureCode": "PPLA3"
  },
  {
    "name": "Vredefort",
    "ascii": "Vredefort",
    "state": "Free State",
    "population": 17515,
    "lat": -27.00805,
    "lon": 27.3646,
    "featureCode": "PPL"
  },
  {
    "name": "Tzaneen",
    "ascii": "Tzaneen",
    "state": "Limpopo",
    "population": 17457,
    "lat": -23.83322,
    "lon": 30.16351,
    "featureCode": "PPLA3"
  },
  {
    "name": "Le Roux",
    "ascii": "Le Roux",
    "state": "Western Cape",
    "population": 17432,
    "lat": -33.89058,
    "lon": 19.10328,
    "featureCode": "PPL"
  },
  {
    "name": "Lansdowne",
    "ascii": "Lansdowne",
    "state": "Western Cape",
    "population": 17399,
    "lat": -33.98735,
    "lon": 18.49746,
    "featureCode": "PPLX"
  },
  {
    "name": "Khowa",
    "ascii": "Khowa",
    "state": "Eastern Cape",
    "population": 17224,
    "lat": -31.33306,
    "lon": 27.85,
    "featureCode": "PPL"
  },
  {
    "name": "Breyten",
    "ascii": "Breyten",
    "state": "Mpumalanga",
    "population": 17189,
    "lat": -26.30176,
    "lon": 29.98696,
    "featureCode": "PPL"
  },
  {
    "name": "Ga-Malakhe",
    "ascii": "Ga-Malakhe",
    "state": "KwaZulu-Natal",
    "population": 16891,
    "lat": -30.8063,
    "lon": 30.33484,
    "featureCode": "PPL"
  },
  {
    "name": "Winburg",
    "ascii": "Winburg",
    "state": "Free State",
    "population": 16862,
    "lat": -28.51805,
    "lon": 27.00933,
    "featureCode": "PPL"
  },
  {
    "name": "Caledon",
    "ascii": "Caledon",
    "state": "Western Cape",
    "population": 16752,
    "lat": -34.22997,
    "lon": 19.4265,
    "featureCode": "PPLA3"
  },
  {
    "name": "Koppies",
    "ascii": "Koppies",
    "state": "Free State",
    "population": 16537,
    "lat": -27.24179,
    "lon": 27.57422,
    "featureCode": "PPL"
  },
  {
    "name": "Frischgewaagd",
    "ascii": "Frischgewaagd",
    "state": "KwaZulu-Natal",
    "population": 16192,
    "lat": -27.38985,
    "lon": 30.95469,
    "featureCode": "PPL"
  },
  {
    "name": "Ugie",
    "ascii": "Ugie",
    "state": "Eastern Cape",
    "population": 16133,
    "lat": -31.19809,
    "lon": 28.23351,
    "featureCode": "PPL"
  },
  {
    "name": "Bagale",
    "ascii": "Bagale",
    "state": "Gauteng",
    "population": 16087,
    "lat": -26.06566,
    "lon": 27.64765,
    "featureCode": "PPL"
  },
  {
    "name": "Leeudoringstad",
    "ascii": "Leeudoringstad",
    "state": "North West",
    "population": 16042,
    "lat": -27.23712,
    "lon": 26.23514,
    "featureCode": "PPL"
  },
  {
    "name": "Makwassie",
    "ascii": "Makwassie",
    "state": "North West",
    "population": 15996,
    "lat": -27.31564,
    "lon": 25.99497,
    "featureCode": "PPL"
  },
  {
    "name": "Thulamahashi",
    "ascii": "Thulamahashi",
    "state": "Limpopo",
    "population": 15974,
    "lat": -24.72459,
    "lon": 31.19939,
    "featureCode": "PPL"
  },
  {
    "name": "Ashton",
    "ascii": "Ashton",
    "state": "Western Cape",
    "population": 15964,
    "lat": -33.83136,
    "lon": 20.05595,
    "featureCode": "PPLA3"
  },
  {
    "name": "Gansbaai",
    "ascii": "Gansbaai",
    "state": "Western Cape",
    "population": 15957,
    "lat": -34.58301,
    "lon": 19.35048,
    "featureCode": "PPL"
  },
  {
    "name": "Tlokoeng",
    "ascii": "Tlokoeng",
    "state": "Eastern Cape",
    "population": 15884,
    "lat": -30.69268,
    "lon": 28.5061,
    "featureCode": "PPL"
  },
  {
    "name": "Thubelihle",
    "ascii": "Thubelihle",
    "state": "Mpumalanga",
    "population": 15876,
    "lat": -26.21551,
    "lon": 29.29164,
    "featureCode": "PPL"
  },
  {
    "name": "Daggakraal",
    "ascii": "Daggakraal",
    "state": "Mpumalanga",
    "population": 15793,
    "lat": -27.13246,
    "lon": 29.97635,
    "featureCode": "PPL"
  },
  {
    "name": "Cala",
    "ascii": "Cala",
    "state": "Eastern Cape",
    "population": 15764,
    "lat": -31.52356,
    "lon": 27.6952,
    "featureCode": "PPLA3"
  },
  {
    "name": "Fernie",
    "ascii": "Fernie",
    "state": "Mpumalanga",
    "population": 15693,
    "lat": -26.39015,
    "lon": 30.78742,
    "featureCode": "PPL"
  },
  {
    "name": "Malamulele",
    "ascii": "Malamulele",
    "state": "Limpopo",
    "population": 15659,
    "lat": -22.97111,
    "lon": 30.67361,
    "featureCode": "PPL"
  },
  {
    "name": "Northam",
    "ascii": "Northam",
    "state": "Limpopo",
    "population": 15598,
    "lat": -24.95775,
    "lon": 27.26543,
    "featureCode": "PPL"
  },
  {
    "name": "Fouriesburg",
    "ascii": "Fouriesburg",
    "state": "Free State",
    "population": 15544,
    "lat": -28.61961,
    "lon": 28.20966,
    "featureCode": "PPL"
  },
  {
    "name": "Winnie Mandela",
    "ascii": "Winnie Mandela",
    "state": "Free State",
    "population": 15454,
    "lat": -28.70025,
    "lon": 26.4581,
    "featureCode": "PPL"
  },
  {
    "name": "Mamafubedu",
    "ascii": "Mamafubedu",
    "state": "Free State",
    "population": 15447,
    "lat": -27.66606,
    "lon": 28.13132,
    "featureCode": "PPL"
  },
  {
    "name": "Moorreesburg",
    "ascii": "Moorreesburg",
    "state": "Western Cape",
    "population": 15428,
    "lat": -33.15388,
    "lon": 18.66031,
    "featureCode": "PPLA2"
  },
  {
    "name": "Rondebosch",
    "ascii": "Rondebosch",
    "state": "Western Cape",
    "population": 15158,
    "lat": -33.96333,
    "lon": 18.47639,
    "featureCode": "PPL"
  },
  {
    "name": "Dysselsdorp",
    "ascii": "Dysselsdorp",
    "state": "Western Cape",
    "population": 15029,
    "lat": -33.57565,
    "lon": 22.44391,
    "featureCode": "PPL"
  },
  {
    "name": "Empuluzu",
    "ascii": "Empuluzu",
    "state": "Mpumalanga",
    "population": 15008,
    "lat": -26.30497,
    "lon": 30.77365,
    "featureCode": "PPL"
  },
  {
    "name": "Berea",
    "ascii": "Berea",
    "state": "KwaZulu-Natal",
    "population": 15000,
    "lat": -29.85185,
    "lon": 30.99337,
    "featureCode": "PPL"
  },
  {
    "name": "Matatiele",
    "ascii": "Matatiele",
    "state": "KwaZulu-Natal",
    "population": 14935,
    "lat": -30.34357,
    "lon": 28.81161,
    "featureCode": "PPLA3"
  },
  {
    "name": "Ixopo",
    "ascii": "Ixopo",
    "state": "KwaZulu-Natal",
    "population": 14929,
    "lat": -30.15,
    "lon": 30.08333,
    "featureCode": "PPLA2"
  },
  {
    "name": "Piketberg",
    "ascii": "Piketberg",
    "state": "Western Cape",
    "population": 14862,
    "lat": -32.90323,
    "lon": 18.75704,
    "featureCode": "PPLA3"
  },
  {
    "name": "Fisantekraal",
    "ascii": "Fisantekraal",
    "state": "Western Cape",
    "population": 14819,
    "lat": -33.78545,
    "lon": 18.71406,
    "featureCode": "PPL"
  },
  {
    "name": "Amersfoort",
    "ascii": "Amersfoort",
    "state": "Mpumalanga",
    "population": 14778,
    "lat": -27.00941,
    "lon": 29.86643,
    "featureCode": "PPL"
  },
  {
    "name": "Adelaide",
    "ascii": "Adelaide",
    "state": "Eastern Cape",
    "population": 14606,
    "lat": -32.70747,
    "lon": 26.29564,
    "featureCode": "PPLA3"
  },
  {
    "name": "Namakgale",
    "ascii": "Namakgale",
    "state": "Limpopo",
    "population": 14588,
    "lat": -23.93399,
    "lon": 31.03119,
    "featureCode": "PPL"
  },
  {
    "name": "Wolseley",
    "ascii": "Wolseley",
    "state": "Western Cape",
    "population": 14533,
    "lat": -33.41403,
    "lon": 19.20052,
    "featureCode": "PPL"
  },
  {
    "name": "Claremont",
    "ascii": "Claremont",
    "state": "Western Cape",
    "population": 14531,
    "lat": -33.98056,
    "lon": 18.46528,
    "featureCode": "PPL"
  },
  {
    "name": "Lenyenye",
    "ascii": "Lenyenye",
    "state": "Limpopo",
    "population": 14496,
    "lat": -23.97056,
    "lon": 30.26965,
    "featureCode": "PPL"
  },
  {
    "name": "Lindley",
    "ascii": "Lindley",
    "state": "Free State",
    "population": 14377,
    "lat": -27.8791,
    "lon": 27.91348,
    "featureCode": "PPL"
  },
  {
    "name": "Ekuvukeni",
    "ascii": "Ekuvukeni",
    "state": "KwaZulu-Natal",
    "population": 14331,
    "lat": -28.46752,
    "lon": 30.15513,
    "featureCode": "PPL"
  },
  {
    "name": "Hankey",
    "ascii": "Hankey",
    "state": "Eastern Cape",
    "population": 14091,
    "lat": -33.83308,
    "lon": 24.88359,
    "featureCode": "PPL"
  },
  {
    "name": "Molteno",
    "ascii": "Molteno",
    "state": "Eastern Cape",
    "population": 13840,
    "lat": -31.39675,
    "lon": 26.36246,
    "featureCode": "PPLA3"
  },
  {
    "name": "Saint Helena Bay",
    "ascii": "Saint Helena Bay",
    "state": "Western Cape",
    "population": 13813,
    "lat": -32.76667,
    "lon": 18.03333,
    "featureCode": "PPL"
  },
  {
    "name": "Craigieburn",
    "ascii": "Craigieburn",
    "state": "KwaZulu-Natal",
    "population": 13543,
    "lat": -30.19709,
    "lon": 30.75222,
    "featureCode": "PPL"
  },
  {
    "name": "Melkbosstrand",
    "ascii": "Melkbosstrand",
    "state": "Western Cape",
    "population": 13542,
    "lat": -33.72614,
    "lon": 18.44286,
    "featureCode": "PPL"
  },
  {
    "name": "Kenton",
    "ascii": "Kenton",
    "state": "Eastern Cape",
    "population": 13539,
    "lat": -33.66667,
    "lon": 26.65,
    "featureCode": "PPLX"
  },
  {
    "name": "Ventersburg",
    "ascii": "Ventersburg",
    "state": "Free State",
    "population": 13490,
    "lat": -28.08561,
    "lon": 27.13814,
    "featureCode": "PPL"
  },
  {
    "name": "Jan Kempdorp",
    "ascii": "Jan Kempdorp",
    "state": "North West",
    "population": 13485,
    "lat": -27.92246,
    "lon": 24.83051,
    "featureCode": "PPL"
  },
  {
    "name": "Tukakgomo",
    "ascii": "Tukakgomo",
    "state": "Limpopo",
    "population": 13472,
    "lat": -24.74334,
    "lon": 30.10764,
    "featureCode": "PPLX"
  },
  {
    "name": "Poortje",
    "ascii": "Poortje",
    "state": "Gauteng",
    "population": 13362,
    "lat": -26.45951,
    "lon": 27.76726,
    "featureCode": "PPL"
  },
  {
    "name": "Thulamahashe",
    "ascii": "Thulamahashe",
    "state": "Mpumalanga",
    "population": 13333,
    "lat": -24.72455,
    "lon": 31.21181,
    "featureCode": "PPL"
  },
  {
    "name": "Xikhusese",
    "ascii": "Xikhusese",
    "state": "Mpumalanga",
    "population": 13324,
    "lat": -24.60238,
    "lon": 31.13456,
    "featureCode": "PPL"
  },
  {
    "name": "Hopewell",
    "ascii": "Hopewell",
    "state": "KwaZulu-Natal",
    "population": 13321,
    "lat": -29.79171,
    "lon": 30.39588,
    "featureCode": "PPL"
  },
  {
    "name": "Dutywa",
    "ascii": "Dutywa",
    "state": "Eastern Cape",
    "population": 13270,
    "lat": -32.09618,
    "lon": 28.30489,
    "featureCode": "PPL"
  },
  {
    "name": "Velddrif",
    "ascii": "Velddrif",
    "state": "Western Cape",
    "population": 13199,
    "lat": -32.78518,
    "lon": 18.17859,
    "featureCode": "PPL"
  },
  {
    "name": "Sannieshof",
    "ascii": "Sannieshof",
    "state": "North West",
    "population": 13198,
    "lat": -26.52946,
    "lon": 25.80894,
    "featureCode": "PPL"
  },
  {
    "name": "Warden",
    "ascii": "Warden",
    "state": "Free State",
    "population": 13152,
    "lat": -27.85452,
    "lon": 28.9653,
    "featureCode": "PPL"
  },
  {
    "name": "Prince Albert",
    "ascii": "Prince Albert",
    "state": "Western Cape",
    "population": 13136,
    "lat": -33.22476,
    "lon": 22.02673,
    "featureCode": "PPLA3"
  },
  {
    "name": "Rethabiseng",
    "ascii": "Rethabiseng",
    "state": "Gauteng",
    "population": 13136,
    "lat": -25.72286,
    "lon": 28.71689,
    "featureCode": "PPL"
  },
  {
    "name": "Paulpietersburg",
    "ascii": "Paulpietersburg",
    "state": "KwaZulu-Natal",
    "population": 13123,
    "lat": -27.42426,
    "lon": 30.81689,
    "featureCode": "PPLA3"
  },
  {
    "name": "Ga-Kgapane",
    "ascii": "Ga-Kgapane",
    "state": "Limpopo",
    "population": 13000,
    "lat": -23.64378,
    "lon": 30.22324,
    "featureCode": "PPL"
  },
  {
    "name": "Mogwase",
    "ascii": "Mogwase",
    "state": "North West",
    "population": 12871,
    "lat": -25.18505,
    "lon": 27.26654,
    "featureCode": "PPL"
  },
  {
    "name": "Nomathamasanqa",
    "ascii": "Nomathamasanqa",
    "state": "Eastern Cape",
    "population": 12815,
    "lat": -33.52276,
    "lon": 25.71044,
    "featureCode": "PPL"
  },
  {
    "name": "Ilinge",
    "ascii": "Ilinge",
    "state": "Eastern Cape",
    "population": 12806,
    "lat": -31.97676,
    "lon": 27.04267,
    "featureCode": "PPL"
  },
  {
    "name": "Maboke",
    "ascii": "Maboke",
    "state": "Mpumalanga",
    "population": 12752,
    "lat": -24.7254,
    "lon": 31.01826,
    "featureCode": "PPL"
  },
  {
    "name": "Delareyville",
    "ascii": "Delareyville",
    "state": "North West",
    "population": 12736,
    "lat": -26.68638,
    "lon": 25.45907,
    "featureCode": "PPLA3"
  },
  {
    "name": "Tjakastad",
    "ascii": "Tjakastad",
    "state": "Mpumalanga",
    "population": 12711,
    "lat": -25.989,
    "lon": 30.823,
    "featureCode": "PPL"
  },
  {
    "name": "Bolla-Tau",
    "ascii": "Bolla-Tau",
    "state": "Mpumalanga",
    "population": 12703,
    "lat": -24.63276,
    "lon": 31.13108,
    "featureCode": "PPL"
  },
  {
    "name": "De Doorns",
    "ascii": "De Doorns",
    "state": "Western Cape",
    "population": 12679,
    "lat": -33.47709,
    "lon": 19.66625,
    "featureCode": "PPL"
  },
  {
    "name": "Allemansdrif",
    "ascii": "Allemansdrif",
    "state": "Mpumalanga",
    "population": 12670,
    "lat": -25.11399,
    "lon": 28.90949,
    "featureCode": "PPL"
  },
  {
    "name": "Swartruggens",
    "ascii": "Swartruggens",
    "state": "North West",
    "population": 12639,
    "lat": -25.65021,
    "lon": 26.68856,
    "featureCode": "PPL"
  },
  {
    "name": "Ka-Mhinga",
    "ascii": "Ka-Mhinga",
    "state": "Limpopo",
    "population": 12609,
    "lat": -22.7577,
    "lon": 30.89983,
    "featureCode": "PPL"
  },
  {
    "name": "Maclear",
    "ascii": "Maclear",
    "state": "Eastern Cape",
    "population": 12604,
    "lat": -31.07104,
    "lon": 28.35183,
    "featureCode": "PPLA3"
  },
  {
    "name": "Embhojeni",
    "ascii": "Embhojeni",
    "state": "Mpumalanga",
    "population": 12589,
    "lat": -25.71794,
    "lon": 31.4793,
    "featureCode": "PPL"
  },
  {
    "name": "Mankoeng",
    "ascii": "Mankoeng",
    "state": "Limpopo",
    "population": 12499,
    "lat": -23.9,
    "lon": 29.81667,
    "featureCode": "PPL"
  },
  {
    "name": "Darling",
    "ascii": "Darling",
    "state": "Western Cape",
    "population": 12484,
    "lat": -33.37817,
    "lon": 18.37938,
    "featureCode": "PPL"
  },
  {
    "name": "Koffiefontein",
    "ascii": "Koffiefontein",
    "state": "Free State",
    "population": 12464,
    "lat": -29.40661,
    "lon": 25.00309,
    "featureCode": "PPLA3"
  },
  {
    "name": "Sundumbili",
    "ascii": "Sundumbili",
    "state": "KwaZulu-Natal",
    "population": 12455,
    "lat": -29.13371,
    "lon": 31.39752,
    "featureCode": "PPL"
  },
  {
    "name": "Colesberg",
    "ascii": "Colesberg",
    "state": "Northern Cape",
    "population": 12423,
    "lat": -30.71999,
    "lon": 25.09718,
    "featureCode": "PPLA3"
  },
  {
    "name": "Dordrecht",
    "ascii": "Dordrecht",
    "state": "Eastern Cape",
    "population": 12292,
    "lat": -31.372,
    "lon": 27.04878,
    "featureCode": "PPL"
  },
  {
    "name": "Flagstaff",
    "ascii": "Flagstaff",
    "state": "Eastern Cape",
    "population": 12280,
    "lat": -31.08042,
    "lon": 29.49522,
    "featureCode": "PPLA3"
  },
  {
    "name": "Evander",
    "ascii": "Evander",
    "state": "Mpumalanga",
    "population": 12180,
    "lat": -26.47056,
    "lon": 29.10973,
    "featureCode": "PPL"
  },
  {
    "name": "Alexandria",
    "ascii": "Alexandria",
    "state": "Eastern Cape",
    "population": 12084,
    "lat": -33.65346,
    "lon": 26.41268,
    "featureCode": "PPL"
  },
  {
    "name": "Oakley",
    "ascii": "Oakley",
    "state": "Mpumalanga",
    "population": 12064,
    "lat": -24.92682,
    "lon": 31.22888,
    "featureCode": "PPL"
  },
  {
    "name": "Bochum",
    "ascii": "Bochum",
    "state": "Limpopo",
    "population": 12000,
    "lat": -23.28609,
    "lon": 29.13964,
    "featureCode": "PPL"
  },
  {
    "name": "Villiersdorp",
    "ascii": "Villiersdorp",
    "state": "Western Cape",
    "population": 11986,
    "lat": -33.99121,
    "lon": 19.29219,
    "featureCode": "PPL"
  },
  {
    "name": "Barkly East",
    "ascii": "Barkly East",
    "state": "Eastern Cape",
    "population": 11965,
    "lat": -30.9683,
    "lon": 27.59567,
    "featureCode": "PPLA2"
  },
  {
    "name": "Mount Frere",
    "ascii": "Mount Frere",
    "state": "Eastern Cape",
    "population": 11842,
    "lat": -30.90173,
    "lon": 28.99238,
    "featureCode": "PPLA3"
  },
  {
    "name": "Ngcobo",
    "ascii": "Ngcobo",
    "state": "Eastern Cape",
    "population": 11783,
    "lat": -31.6754,
    "lon": 27.99664,
    "featureCode": "PPL"
  },
  {
    "name": "Glenharvie",
    "ascii": "Glenharvie",
    "state": "Gauteng",
    "population": 11763,
    "lat": -26.38989,
    "lon": 27.61592,
    "featureCode": "PPL"
  },
  {
    "name": "Barkly West",
    "ascii": "Barkly West",
    "state": "Northern Cape",
    "population": 11621,
    "lat": -28.53537,
    "lon": 24.52151,
    "featureCode": "PPLA3"
  },
  {
    "name": "Kgwaripe",
    "ascii": "Kgwaripe",
    "state": "KwaZulu-Natal",
    "population": 11519,
    "lat": -28.37007,
    "lon": 32.34879,
    "featureCode": "PPL"
  },
  {
    "name": "Devon",
    "ascii": "Devon",
    "state": "Gauteng",
    "population": 11476,
    "lat": -26.35576,
    "lon": 28.77837,
    "featureCode": "PPL"
  },
  {
    "name": "Wepener",
    "ascii": "Wepener",
    "state": "Free State",
    "population": 11446,
    "lat": -29.72866,
    "lon": 27.03805,
    "featureCode": "PPL"
  },
  {
    "name": "Harding",
    "ascii": "Harding",
    "state": "KwaZulu-Natal",
    "population": 11434,
    "lat": -30.57643,
    "lon": 29.88401,
    "featureCode": "PPLA3"
  },
  {
    "name": "Dewetsdorp",
    "ascii": "Dewetsdorp",
    "state": "Free State",
    "population": 11379,
    "lat": -29.58274,
    "lon": 26.66511,
    "featureCode": "PPLA3"
  },
  {
    "name": "Emtfuntini",
    "ascii": "Emtfuntini",
    "state": "Mpumalanga",
    "population": 11323,
    "lat": -25.68406,
    "lon": 31.637,
    "featureCode": "PPL"
  },
  {
    "name": "Hertzogville",
    "ascii": "Hertzogville",
    "state": "Free State",
    "population": 11289,
    "lat": -28.12759,
    "lon": 25.50387,
    "featureCode": "PPL"
  },
  {
    "name": "Prieska",
    "ascii": "Prieska",
    "state": "Northern Cape",
    "population": 11236,
    "lat": -29.66803,
    "lon": 22.74251,
    "featureCode": "PPLA3"
  },
  {
    "name": "eNduli",
    "ascii": "eNduli",
    "state": "Western Cape",
    "population": 11203,
    "lat": -33.35637,
    "lon": 19.34097,
    "featureCode": "PPL"
  },
  {
    "name": "Sebayeng",
    "ascii": "Sebayeng",
    "state": "Limpopo",
    "population": 10917,
    "lat": -23.75827,
    "lon": 29.66707,
    "featureCode": "PPL"
  },
  {
    "name": "Steynsrus",
    "ascii": "Steynsrus",
    "state": "Free State",
    "population": 10910,
    "lat": -27.95333,
    "lon": 27.56394,
    "featureCode": "PPL"
  },
  {
    "name": "Bonnievale",
    "ascii": "Bonnievale",
    "state": "Western Cape",
    "population": 10893,
    "lat": -33.93224,
    "lon": 20.09924,
    "featureCode": "PPL"
  },
  {
    "name": "Mamre",
    "ascii": "Mamre",
    "state": "Western Cape",
    "population": 10840,
    "lat": -33.51273,
    "lon": 18.47374,
    "featureCode": "PPL"
  },
  {
    "name": "Tulbagh",
    "ascii": "Tulbagh",
    "state": "Western Cape",
    "population": 10745,
    "lat": -33.28596,
    "lon": 19.14116,
    "featureCode": "PPL"
  },
  {
    "name": "Machadodorp",
    "ascii": "Machadodorp",
    "state": "Mpumalanga",
    "population": 10712,
    "lat": -25.6688,
    "lon": 30.2497,
    "featureCode": "PPL"
  },
  {
    "name": "Hazelmere",
    "ascii": "Hazelmere",
    "state": "KwaZulu-Natal",
    "population": 10605,
    "lat": -29.59665,
    "lon": 31.04358,
    "featureCode": "PPL"
  },
  {
    "name": "Cofimvaba",
    "ascii": "Cofimvaba",
    "state": "Eastern Cape",
    "population": 10523,
    "lat": -32.00115,
    "lon": 27.58045,
    "featureCode": "PPLA3"
  },
  {
    "name": "Bedford",
    "ascii": "Bedford",
    "state": "Eastern Cape",
    "population": 10506,
    "lat": -32.67903,
    "lon": 26.08686,
    "featureCode": "PPL"
  },
  {
    "name": "Jacobsdal",
    "ascii": "Jacobsdal",
    "state": "Free State",
    "population": 10497,
    "lat": -29.12792,
    "lon": 24.77382,
    "featureCode": "PPL"
  },
  {
    "name": "Buyisonto",
    "ascii": "Buyisonto",
    "state": "Mpumalanga",
    "population": 10472,
    "lat": -24.79013,
    "lon": 31.13034,
    "featureCode": "PPL"
  },
  {
    "name": "Springbok",
    "ascii": "Springbok",
    "state": "Northern Cape",
    "population": 10438,
    "lat": -29.66434,
    "lon": 17.8865,
    "featureCode": "PPLA2"
  },
  {
    "name": "Dannhauser",
    "ascii": "Dannhauser",
    "state": "KwaZulu-Natal",
    "population": 10378,
    "lat": -28.0151,
    "lon": 30.05658,
    "featureCode": "PPLA3"
  },
  {
    "name": "Boshof",
    "ascii": "Boshof",
    "state": "Free State",
    "population": 10194,
    "lat": -28.53914,
    "lon": 25.23965,
    "featureCode": "PPLA3"
  },
  {
    "name": "Kirkwood",
    "ascii": "Kirkwood",
    "state": "Eastern Cape",
    "population": 10148,
    "lat": -33.39829,
    "lon": 25.44279,
    "featureCode": "PPLA3"
  },
  {
    "name": "Daniëlskuil",
    "ascii": "Danielskuil",
    "state": "Northern Cape",
    "population": 10123,
    "lat": -28.18873,
    "lon": 23.53951,
    "featureCode": "PPL"
  },
  {
    "name": "Petrusburg",
    "ascii": "Petrusburg",
    "state": "Free State",
    "population": 10106,
    "lat": -29.11597,
    "lon": 25.41435,
    "featureCode": "PPL"
  },
  {
    "name": "Darnall",
    "ascii": "Darnall",
    "state": "KwaZulu-Natal",
    "population": 10106,
    "lat": -29.26679,
    "lon": 31.35755,
    "featureCode": "PPL"
  },
  {
    "name": "Motetema",
    "ascii": "Motetema",
    "state": "Mpumalanga",
    "population": 10090,
    "lat": -25.09468,
    "lon": 29.46186,
    "featureCode": "PPL"
  },
  {
    "name": "Sedgefield",
    "ascii": "Sedgefield",
    "state": "Western Cape",
    "population": 10069,
    "lat": -34.0211,
    "lon": 22.8055,
    "featureCode": "PPL"
  },
  {
    "name": "Bontrug",
    "ascii": "Bontrug",
    "state": "Eastern Cape",
    "population": 10057,
    "lat": -33.39786,
    "lon": 25.48283,
    "featureCode": "PPL"
  },
  {
    "name": "Inanda",
    "ascii": "Inanda",
    "state": "KwaZulu-Natal",
    "population": 10032,
    "lat": -29.61392,
    "lon": 30.92816,
    "featureCode": "PPL"
  },
  {
    "name": "Orange Farm",
    "ascii": "Orange Farm",
    "state": "Gauteng",
    "population": 10000,
    "lat": -26.48333,
    "lon": 27.86667,
    "featureCode": "PPLX"
  },
  {
    "name": "Maile",
    "ascii": "Maile",
    "state": "North West",
    "population": 10000,
    "lat": -25.44152,
    "lon": 27.28165,
    "featureCode": "PPL"
  },
  {
    "name": "Rosebank",
    "ascii": "Rosebank",
    "state": "Western Cape",
    "population": 10000,
    "lat": -33.95556,
    "lon": 18.47417,
    "featureCode": "PPL"
  },
  {
    "name": "Ritchie",
    "ascii": "Ritchie",
    "state": "Northern Cape",
    "population": 9960,
    "lat": -29.03801,
    "lon": 24.60278,
    "featureCode": "PPL"
  },
  {
    "name": "Langebaan",
    "ascii": "Langebaan",
    "state": "Western Cape",
    "population": 9940,
    "lat": -33.09751,
    "lon": 18.0315,
    "featureCode": "PPL"
  },
  {
    "name": "Kestell",
    "ascii": "Kestell",
    "state": "Free State",
    "population": 9907,
    "lat": -28.31094,
    "lon": 28.7036,
    "featureCode": "PPL"
  },
  {
    "name": "Heidelberg",
    "ascii": "Heidelberg",
    "state": "Western Cape",
    "population": 9895,
    "lat": -34.09127,
    "lon": 20.95661,
    "featureCode": "PPL"
  },
  {
    "name": "Leeuwfontein-C",
    "ascii": "Leeuwfontein-C",
    "state": "Mpumalanga",
    "population": 9773,
    "lat": -25.17046,
    "lon": 28.90361,
    "featureCode": "PPLX"
  },
  {
    "name": "Ilitha",
    "ascii": "Ilitha",
    "state": "Eastern Cape",
    "population": 9757,
    "lat": -32.89243,
    "lon": 27.5305,
    "featureCode": "PPL"
  },
  {
    "name": "Touwsrivier",
    "ascii": "Touwsrivier",
    "state": "Western Cape",
    "population": 9735,
    "lat": -33.33826,
    "lon": 20.03092,
    "featureCode": "PPL"
  },
  {
    "name": "Komga",
    "ascii": "Komga",
    "state": "Eastern Cape",
    "population": 9692,
    "lat": -32.57704,
    "lon": 27.892,
    "featureCode": "PPLA3"
  },
  {
    "name": "Monnakato",
    "ascii": "Monnakato",
    "state": "North West",
    "population": 9676,
    "lat": -25.35128,
    "lon": 27.27377,
    "featureCode": "PPL"
  },
  {
    "name": "Hluvukani",
    "ascii": "Hluvukani",
    "state": "Limpopo",
    "population": 9631,
    "lat": -24.64528,
    "lon": 31.34103,
    "featureCode": "PPL"
  },
  {
    "name": "Bizana",
    "ascii": "Bizana",
    "state": "Eastern Cape",
    "population": 9553,
    "lat": -30.85907,
    "lon": 29.85384,
    "featureCode": "PPLA3"
  },
  {
    "name": "Kakamas",
    "ascii": "Kakamas",
    "state": "Northern Cape",
    "population": 9538,
    "lat": -28.77341,
    "lon": 20.6147,
    "featureCode": "PPLA3"
  },
  {
    "name": "Indwe",
    "ascii": "Indwe",
    "state": "Eastern Cape",
    "population": 9505,
    "lat": -31.46667,
    "lon": 27.33333,
    "featureCode": "PPL"
  },
  {
    "name": "Khokhamoya",
    "ascii": "Khokhamoya",
    "state": "Mpumalanga",
    "population": 9466,
    "lat": -24.95375,
    "lon": 31.32135,
    "featureCode": "PPL"
  },
  {
    "name": "Mmametlhake",
    "ascii": "Mmametlhake",
    "state": "Mpumalanga",
    "population": 9450,
    "lat": -25.11222,
    "lon": 28.55278,
    "featureCode": "PPL"
  },
  {
    "name": "Saron",
    "ascii": "Saron",
    "state": "Western Cape",
    "population": 9396,
    "lat": -33.18078,
    "lon": 19.00892,
    "featureCode": "PPL"
  },
  {
    "name": "Melmoth",
    "ascii": "Melmoth",
    "state": "KwaZulu-Natal",
    "population": 9362,
    "lat": -28.58664,
    "lon": 31.39783,
    "featureCode": "PPLA3"
  },
  {
    "name": "Klapmuts",
    "ascii": "Klapmuts",
    "state": "Western Cape",
    "population": 9229,
    "lat": -33.8111,
    "lon": 18.86421,
    "featureCode": "PPL"
  },
  {
    "name": "Kathu",
    "ascii": "Kathu",
    "state": "Northern Cape",
    "population": 9219,
    "lat": -27.69569,
    "lon": 23.04929,
    "featureCode": "PPLA3"
  },
  {
    "name": "Mhlambanyatsi",
    "ascii": "Mhlambanyatsi",
    "state": "Mpumalanga",
    "population": 9219,
    "lat": -25.66205,
    "lon": 31.5159,
    "featureCode": "PPL"
  },
  {
    "name": "Willowmore",
    "ascii": "Willowmore",
    "state": "Eastern Cape",
    "population": 9199,
    "lat": -33.29265,
    "lon": 23.48954,
    "featureCode": "PPLA3"
  },
  {
    "name": "Clanwilliam",
    "ascii": "Clanwilliam",
    "state": "Western Cape",
    "population": 9194,
    "lat": -32.18173,
    "lon": 18.89217,
    "featureCode": "PPLA3"
  },
  {
    "name": "Morgenzon",
    "ascii": "Morgenzon",
    "state": "Mpumalanga",
    "population": 9162,
    "lat": -26.737,
    "lon": 29.61774,
    "featureCode": "PPL"
  },
  {
    "name": "Shatale",
    "ascii": "Shatale",
    "state": "Mpumalanga",
    "population": 9155,
    "lat": -24.79571,
    "lon": 31.04708,
    "featureCode": "PPL"
  },
  {
    "name": "Nongoma",
    "ascii": "Nongoma",
    "state": "KwaZulu-Natal",
    "population": 9140,
    "lat": -27.90968,
    "lon": 31.64817,
    "featureCode": "PPLA3"
  },
  {
    "name": "Kuruman",
    "ascii": "Kuruman",
    "state": "Northern Cape",
    "population": 9093,
    "lat": -27.46353,
    "lon": 23.43552,
    "featureCode": "PPLA2"
  },
  {
    "name": "Tsakani",
    "ascii": "Tsakani",
    "state": "Mpumalanga",
    "population": 8907,
    "lat": -24.61933,
    "lon": 31.05133,
    "featureCode": "PPL"
  },
  {
    "name": "Carousel View",
    "ascii": "Carousel View",
    "state": "North West",
    "population": 8875,
    "lat": -25.32264,
    "lon": 28.28964,
    "featureCode": "PPL"
  },
  {
    "name": "Cathcart",
    "ascii": "Cathcart",
    "state": "Eastern Cape",
    "population": 8818,
    "lat": -32.2985,
    "lon": 27.14362,
    "featureCode": "PPL"
  },
  {
    "name": "Phakamisa",
    "ascii": "Phakamisa",
    "state": "Eastern Cape",
    "population": 8806,
    "lat": -32.93328,
    "lon": 27.4571,
    "featureCode": "PPL"
  },
  {
    "name": "Phatsima",
    "ascii": "Phatsima",
    "state": "North West",
    "population": 8796,
    "lat": -25.3946,
    "lon": 27.0149,
    "featureCode": "PPLX"
  },
  {
    "name": "Kamalamule",
    "ascii": "Kamalamule",
    "state": "Mpumalanga",
    "population": 8766,
    "lat": -24.87576,
    "lon": 31.31181,
    "featureCode": "PPL"
  },
  {
    "name": "Rouxville",
    "ascii": "Rouxville",
    "state": "Free State",
    "population": 8759,
    "lat": -30.41827,
    "lon": 26.83656,
    "featureCode": "PPL"
  },
  {
    "name": "Marite",
    "ascii": "Marite",
    "state": "Mpumalanga",
    "population": 8657,
    "lat": -24.97161,
    "lon": 31.11249,
    "featureCode": "PPL"
  },
  {
    "name": "Maluti",
    "ascii": "Maluti",
    "state": "Eastern Cape",
    "population": 8654,
    "lat": -30.26207,
    "lon": 28.79242,
    "featureCode": "PPL"
  },
  {
    "name": "Steynsburg",
    "ascii": "Steynsburg",
    "state": "Eastern Cape",
    "population": 8642,
    "lat": -31.29565,
    "lon": 25.82338,
    "featureCode": "PPL"
  },
  {
    "name": "Citrusdal",
    "ascii": "Citrusdal",
    "state": "Western Cape",
    "population": 8598,
    "lat": -32.59215,
    "lon": 19.01516,
    "featureCode": "PPL"
  },
  {
    "name": "Sterkstroom",
    "ascii": "Sterkstroom",
    "state": "Eastern Cape",
    "population": 8584,
    "lat": -31.55714,
    "lon": 26.55417,
    "featureCode": "PPL"
  },
  {
    "name": "Aberdeen",
    "ascii": "Aberdeen",
    "state": "Eastern Cape",
    "population": 8580,
    "lat": -32.47588,
    "lon": 24.06525,
    "featureCode": "PPL"
  },
  {
    "name": "Memel",
    "ascii": "Memel",
    "state": "Free State",
    "population": 8556,
    "lat": -27.68159,
    "lon": 29.56686,
    "featureCode": "PPL"
  },
  {
    "name": "Ladismith",
    "ascii": "Ladismith",
    "state": "Western Cape",
    "population": 8539,
    "lat": -33.49331,
    "lon": 21.26755,
    "featureCode": "PPLA3"
  },
  {
    "name": "Kwamhlanga",
    "ascii": "Kwamhlanga",
    "state": "Gauteng",
    "population": 8535,
    "lat": -25.43001,
    "lon": 28.71218,
    "featureCode": "PPL"
  },
  {
    "name": "Nuwerus NC",
    "ascii": "Nuwerus NC",
    "state": "Northern Cape",
    "population": 8531,
    "lat": -28.47438,
    "lon": 21.27042,
    "featureCode": "PPL"
  },
  {
    "name": "Utrecht",
    "ascii": "Utrecht",
    "state": "KwaZulu-Natal",
    "population": 8486,
    "lat": -27.65862,
    "lon": 30.32166,
    "featureCode": "PPLA3"
  },
  {
    "name": "Porterville",
    "ascii": "Porterville",
    "state": "Western Cape",
    "population": 8455,
    "lat": -33.01816,
    "lon": 18.99279,
    "featureCode": "PPL"
  },
  {
    "name": "Lady Grey",
    "ascii": "Lady Grey",
    "state": "Eastern Cape",
    "population": 8414,
    "lat": -30.71084,
    "lon": 27.21613,
    "featureCode": "PPLA3"
  },
  {
    "name": "Nthrowane",
    "ascii": "Nthrowane",
    "state": "Mpumalanga",
    "population": 8336,
    "lat": -26.74777,
    "lon": 28.75015,
    "featureCode": "PPL"
  },
  {
    "name": "eManzana",
    "ascii": "eManzana",
    "state": "Mpumalanga",
    "population": 8293,
    "lat": -25.95414,
    "lon": 30.5627,
    "featureCode": "PPL"
  },
  {
    "name": "Victoria West",
    "ascii": "Victoria West",
    "state": "Northern Cape",
    "population": 8254,
    "lat": -31.40364,
    "lon": 23.11461,
    "featureCode": "PPLA3"
  },
  {
    "name": "Lehurutshe",
    "ascii": "Lehurutshe",
    "state": "North West",
    "population": 8252,
    "lat": -25.4812,
    "lon": 25.96508,
    "featureCode": "PPL"
  },
  {
    "name": "Wakkerstroom",
    "ascii": "Wakkerstroom",
    "state": "Mpumalanga",
    "population": 8209,
    "lat": -27.35493,
    "lon": 30.14384,
    "featureCode": "PPL"
  },
  {
    "name": "Weenen",
    "ascii": "Weenen",
    "state": "KwaZulu-Natal",
    "population": 8183,
    "lat": -28.84918,
    "lon": 30.07722,
    "featureCode": "PPL"
  },
  {
    "name": "Prince Alfred Hamlet",
    "ascii": "Prince Alfred Hamlet",
    "state": "Western Cape",
    "population": 8159,
    "lat": -33.30392,
    "lon": 19.32468,
    "featureCode": "PPL"
  },
  {
    "name": "Calvinia",
    "ascii": "Calvinia",
    "state": "Northern Cape",
    "population": 8146,
    "lat": -31.47069,
    "lon": 19.77601,
    "featureCode": "PPLA3"
  },
  {
    "name": "Gemsbokspruit",
    "ascii": "Gemsbokspruit",
    "state": "Mpumalanga",
    "population": 8138,
    "lat": -25.40339,
    "lon": 28.87862,
    "featureCode": "PPL"
  },
  {
    "name": "eMvelo",
    "ascii": "eMvelo",
    "state": "Mpumalanga",
    "population": 8110,
    "lat": -26.62455,
    "lon": 30.66234,
    "featureCode": "PPL"
  },
  {
    "name": "Stilbaai",
    "ascii": "Stilbaai",
    "state": "Western Cape",
    "population": 8000,
    "lat": -34.3693,
    "lon": 21.40748,
    "featureCode": "PPL"
  },
  {
    "name": "Walkerville",
    "ascii": "Walkerville",
    "state": "Gauteng",
    "population": 7981,
    "lat": -26.42093,
    "lon": 27.95251,
    "featureCode": "PPL"
  },
  {
    "name": "Kleinmond",
    "ascii": "Kleinmond",
    "state": "Western Cape",
    "population": 7948,
    "lat": -34.3394,
    "lon": 19.03407,
    "featureCode": "PPL"
  },
  {
    "name": "Kamhlushwa",
    "ascii": "Kamhlushwa",
    "state": "Mpumalanga",
    "population": 7917,
    "lat": -25.66365,
    "lon": 31.68337,
    "featureCode": "PPL"
  },
  {
    "name": "Bosfontein",
    "ascii": "Bosfontein",
    "state": "Mpumalanga",
    "population": 7811,
    "lat": -25.74237,
    "lon": 31.61798,
    "featureCode": "PPL"
  },
  {
    "name": "Bethulie",
    "ascii": "Bethulie",
    "state": "Free State",
    "population": 7783,
    "lat": -30.49864,
    "lon": 25.97458,
    "featureCode": "PPL"
  },
  {
    "name": "Tweeling",
    "ascii": "Tweeling",
    "state": "Free State",
    "population": 7745,
    "lat": -27.55513,
    "lon": 28.51609,
    "featureCode": "PPL"
  },
  {
    "name": "Edenburg",
    "ascii": "Edenburg",
    "state": "Free State",
    "population": 7739,
    "lat": -29.73661,
    "lon": 25.9364,
    "featureCode": "PPL"
  },
  {
    "name": "Colenso",
    "ascii": "Colenso",
    "state": "KwaZulu-Natal",
    "population": 7653,
    "lat": -28.73933,
    "lon": 29.82582,
    "featureCode": "PPL"
  },
  {
    "name": "Clarens",
    "ascii": "Clarens",
    "state": "Free State",
    "population": 7644,
    "lat": -28.5154,
    "lon": 28.41985,
    "featureCode": "PPL"
  },
  {
    "name": "Albertina",
    "ascii": "Albertina",
    "state": "Western Cape",
    "population": 7634,
    "lat": -34.20544,
    "lon": 21.58001,
    "featureCode": "PPL"
  },
  {
    "name": "Burgersfort",
    "ascii": "Burgersfort",
    "state": "Mpumalanga",
    "population": 7630,
    "lat": -24.67554,
    "lon": 30.32877,
    "featureCode": "PPLA3"
  },
  {
    "name": "Bathurst",
    "ascii": "Bathurst",
    "state": "Eastern Cape",
    "population": 7630,
    "lat": -33.4998,
    "lon": 26.8294,
    "featureCode": "PPL"
  },
  {
    "name": "Magaliesburg",
    "ascii": "Magaliesburg",
    "state": "Gauteng",
    "population": 7623,
    "lat": -25.9936,
    "lon": 27.55619,
    "featureCode": "PPL"
  },
  {
    "name": "Elandskraal",
    "ascii": "Elandskraal",
    "state": "Limpopo",
    "population": 7621,
    "lat": -24.7209,
    "lon": 29.40783,
    "featureCode": "PPL"
  },
  {
    "name": "Welverdiend",
    "ascii": "Welverdiend",
    "state": "Limpopo",
    "population": 7601,
    "lat": -24.58007,
    "lon": 31.32559,
    "featureCode": "PPL"
  },
  {
    "name": "Excelsior",
    "ascii": "Excelsior",
    "state": "Free State",
    "population": 7594,
    "lat": -28.94089,
    "lon": 27.06069,
    "featureCode": "PPL"
  },
  {
    "name": "Edenville",
    "ascii": "Edenville",
    "state": "Free State",
    "population": 7540,
    "lat": -27.5518,
    "lon": 27.67632,
    "featureCode": "PPL"
  },
  {
    "name": "Vanrhynsdorp",
    "ascii": "Vanrhynsdorp",
    "state": "Western Cape",
    "population": 7515,
    "lat": -31.60889,
    "lon": 18.73968,
    "featureCode": "PPL"
  },
  {
    "name": "Addo",
    "ascii": "Addo",
    "state": "Eastern Cape",
    "population": 7475,
    "lat": -33.54833,
    "lon": 25.6899,
    "featureCode": "PPL"
  },
  {
    "name": "Joubertina",
    "ascii": "Joubertina",
    "state": "Eastern Cape",
    "population": 7472,
    "lat": -33.82547,
    "lon": 23.85618,
    "featureCode": "PPL"
  },
  {
    "name": "Klawer",
    "ascii": "Klawer",
    "state": "Western Cape",
    "population": 7469,
    "lat": -31.77593,
    "lon": 18.62497,
    "featureCode": "PPL"
  },
  {
    "name": "Hopefield",
    "ascii": "Hopefield",
    "state": "Western Cape",
    "population": 7457,
    "lat": -33.06255,
    "lon": 18.34907,
    "featureCode": "PPL"
  },
  {
    "name": "Emgwenya",
    "ascii": "Emgwenya",
    "state": "Mpumalanga",
    "population": 7410,
    "lat": -25.63684,
    "lon": 30.32404,
    "featureCode": "PPL"
  },
  {
    "name": "Magogeni",
    "ascii": "Magogeni",
    "state": "Mpumalanga",
    "population": 7396,
    "lat": -25.78841,
    "lon": 31.60758,
    "featureCode": "PPL"
  },
  {
    "name": "Lusikisiki",
    "ascii": "Lusikisiki",
    "state": "Eastern Cape",
    "population": 7396,
    "lat": -31.36199,
    "lon": 29.57328,
    "featureCode": "PPL"
  },
  {
    "name": "Wilderness",
    "ascii": "Wilderness",
    "state": "Western Cape",
    "population": 7385,
    "lat": -33.99385,
    "lon": 22.57574,
    "featureCode": "PPL"
  },
  {
    "name": "Paul Roux",
    "ascii": "Paul Roux",
    "state": "Free State",
    "population": 7370,
    "lat": -28.29747,
    "lon": 27.95042,
    "featureCode": "PPL"
  },
  {
    "name": "Umzimhle",
    "ascii": "Umzimhle",
    "state": "North West",
    "population": 7352,
    "lat": -26.935,
    "lon": 26.73074,
    "featureCode": "PPL"
  },
  {
    "name": "Eden Glen",
    "ascii": "Eden Glen",
    "state": "Gauteng",
    "population": 7345,
    "lat": -26.1323,
    "lon": 28.16859,
    "featureCode": "PPLX"
  },
  {
    "name": "Lamberts Bay",
    "ascii": "Lamberts Bay",
    "state": "Western Cape",
    "population": 7332,
    "lat": -32.09694,
    "lon": 18.3085,
    "featureCode": "PPL"
  },
  {
    "name": "Lothair",
    "ascii": "Lothair",
    "state": "Mpumalanga",
    "population": 7306,
    "lat": -26.38939,
    "lon": 30.43526,
    "featureCode": "PPL"
  },
  {
    "name": "Edinburgh A",
    "ascii": "Edinburgh A",
    "state": "Mpumalanga",
    "population": 7305,
    "lat": -24.68985,
    "lon": 31.17964,
    "featureCode": "PPL"
  },
  {
    "name": "KwaThandeka",
    "ascii": "KwaThandeka",
    "state": "Mpumalanga",
    "population": 7289,
    "lat": -26.65372,
    "lon": 30.678,
    "featureCode": "PPL"
  },
  {
    "name": "Tarkastad",
    "ascii": "Tarkastad",
    "state": "Eastern Cape",
    "population": 7260,
    "lat": -32.00893,
    "lon": 26.25935,
    "featureCode": "PPLA3"
  },
  {
    "name": "Winterton",
    "ascii": "Winterton",
    "state": "KwaZulu-Natal",
    "population": 7224,
    "lat": -28.81229,
    "lon": 29.54123,
    "featureCode": "PPL"
  },
  {
    "name": "Madyembeni",
    "ascii": "Madyembeni",
    "state": "Mpumalanga",
    "population": 7210,
    "lat": -24.76969,
    "lon": 31.02818,
    "featureCode": "PPL"
  },
  {
    "name": "Glenmore",
    "ascii": "Glenmore",
    "state": "Mpumalanga",
    "population": 7180,
    "lat": -26.26469,
    "lon": 30.84358,
    "featureCode": "PPL"
  },
  {
    "name": "Eastleigh",
    "ascii": "Eastleigh",
    "state": "Gauteng",
    "population": 6988,
    "lat": -26.12965,
    "lon": 28.15541,
    "featureCode": "PPLX"
  },
  {
    "name": "Mathibela",
    "ascii": "Mathibela",
    "state": "Limpopo",
    "population": 6943,
    "lat": -24.31249,
    "lon": 29.31245,
    "featureCode": "PPL"
  },
  {
    "name": "Tweespruit",
    "ascii": "Tweespruit",
    "state": "Free State",
    "population": 6939,
    "lat": -29.18521,
    "lon": 27.03189,
    "featureCode": "PPL"
  },
  {
    "name": "Constantia",
    "ascii": "Constantia",
    "state": "Western Cape",
    "population": 6922,
    "lat": -34.03139,
    "lon": 18.41833,
    "featureCode": "PPL"
  },
  {
    "name": "Merry Pebble Stream",
    "ascii": "Merry Pebble Stream",
    "state": "Limpopo",
    "population": 6905,
    "lat": -24.76647,
    "lon": 31.21869,
    "featureCode": "PPL"
  },
  {
    "name": "Trust Feed",
    "ascii": "Trust Feed",
    "state": "KwaZulu-Natal",
    "population": 6901,
    "lat": -29.39967,
    "lon": 30.54276,
    "featureCode": "PPL"
  },
  {
    "name": "Port Edward",
    "ascii": "Port Edward",
    "state": "KwaZulu-Natal",
    "population": 6872,
    "lat": -31.05067,
    "lon": 30.22799,
    "featureCode": "PPL"
  },
  {
    "name": "Jagersfontein",
    "ascii": "Jagersfontein",
    "state": "Free State",
    "population": 6865,
    "lat": -29.76126,
    "lon": 25.42706,
    "featureCode": "PPL"
  },
  {
    "name": "Tsolo",
    "ascii": "Tsolo",
    "state": "Eastern Cape",
    "population": 6860,
    "lat": -31.30781,
    "lon": 28.75541,
    "featureCode": "PPL"
  },
  {
    "name": "Cookhouse",
    "ascii": "Cookhouse",
    "state": "Eastern Cape",
    "population": 6837,
    "lat": -32.74322,
    "lon": 25.80037,
    "featureCode": "PPL"
  },
  {
    "name": "Maviljan A",
    "ascii": "Maviljan A",
    "state": "Mpumalanga",
    "population": 6829,
    "lat": -24.84822,
    "lon": 31.08832,
    "featureCode": "PPL"
  },
  {
    "name": "Lillydale",
    "ascii": "Lillydale",
    "state": "Limpopo",
    "population": 6799,
    "lat": -24.86638,
    "lon": 31.36893,
    "featureCode": "PPL"
  },
  {
    "name": "Laingsburg",
    "ascii": "Laingsburg",
    "state": "Western Cape",
    "population": 6789,
    "lat": -33.19495,
    "lon": 20.85872,
    "featureCode": "PPLA3"
  },
  {
    "name": "Genadendal",
    "ascii": "Genadendal",
    "state": "Western Cape",
    "population": 6784,
    "lat": -34.03779,
    "lon": 19.56224,
    "featureCode": "PPL"
  },
  {
    "name": "Itekeng",
    "ascii": "Itekeng",
    "state": "North West",
    "population": 6740,
    "lat": -26.35931,
    "lon": 25.90688,
    "featureCode": "PPL"
  },
  {
    "name": "Jansenville",
    "ascii": "Jansenville",
    "state": "Eastern Cape",
    "population": 6723,
    "lat": -32.94306,
    "lon": 24.67218,
    "featureCode": "PPLA3"
  },
  {
    "name": "Kranshoek",
    "ascii": "Kranshoek",
    "state": "Western Cape",
    "population": 6705,
    "lat": -34.0878,
    "lon": 23.28333,
    "featureCode": "PPL"
  },
  {
    "name": "Nondweni",
    "ascii": "Nondweni",
    "state": "KwaZulu-Natal",
    "population": 6691,
    "lat": -28.19228,
    "lon": 30.81955,
    "featureCode": "PPL"
  },
  {
    "name": "Paterson",
    "ascii": "Paterson",
    "state": "Eastern Cape",
    "population": 6687,
    "lat": -33.44064,
    "lon": 25.9741,
    "featureCode": "PPL"
  },
  {
    "name": "Madras A",
    "ascii": "Madras A",
    "state": "Mpumalanga",
    "population": 6635,
    "lat": -24.99106,
    "lon": 31.14838,
    "featureCode": "PPL"
  },
  {
    "name": "Botrivier",
    "ascii": "Botrivier",
    "state": "Western Cape",
    "population": 6594,
    "lat": -34.22568,
    "lon": 19.20313,
    "featureCode": "PPL"
  },
  {
    "name": "Simon's Town",
    "ascii": "Simon's Town",
    "state": "Western Cape",
    "population": 6569,
    "lat": -34.1934,
    "lon": 18.43585,
    "featureCode": "PPL"
  },
  {
    "name": "Amalia",
    "ascii": "Amalia",
    "state": "North West",
    "population": 6566,
    "lat": -27.24836,
    "lon": 25.04581,
    "featureCode": "PPL"
  },
  {
    "name": "Nqutu",
    "ascii": "Nqutu",
    "state": "KwaZulu-Natal",
    "population": 6533,
    "lat": -28.21216,
    "lon": 30.67542,
    "featureCode": "PPL"
  },
  {
    "name": "Dealesville",
    "ascii": "Dealesville",
    "state": "Free State",
    "population": 6524,
    "lat": -28.67486,
    "lon": 25.76681,
    "featureCode": "PPL"
  },
  {
    "name": "Grootvlei",
    "ascii": "Grootvlei",
    "state": "Mpumalanga",
    "population": 6487,
    "lat": -26.76247,
    "lon": 28.48382,
    "featureCode": "PPL"
  },
  {
    "name": "Mount Ayliff",
    "ascii": "Mount Ayliff",
    "state": "Eastern Cape",
    "population": 6431,
    "lat": -30.80821,
    "lon": 29.36644,
    "featureCode": "PPLA2"
  },
  {
    "name": "Trompsburg",
    "ascii": "Trompsburg",
    "state": "Free State",
    "population": 6395,
    "lat": -30.03363,
    "lon": 25.78041,
    "featureCode": "PPLA2"
  },
  {
    "name": "Patensie",
    "ascii": "Patensie",
    "state": "Eastern Cape",
    "population": 6304,
    "lat": -33.76007,
    "lon": 24.81383,
    "featureCode": "PPL"
  },
  {
    "name": "Godide",
    "ascii": "Godide",
    "state": "Mpumalanga",
    "population": 6291,
    "lat": -24.72898,
    "lon": 31.23695,
    "featureCode": "PPL"
  },
  {
    "name": "Riviersonderend",
    "ascii": "Riviersonderend",
    "state": "Western Cape",
    "population": 6284,
    "lat": -34.14981,
    "lon": 19.91429,
    "featureCode": "PPL"
  },
  {
    "name": "Lutzville",
    "ascii": "Lutzville",
    "state": "Western Cape",
    "population": 6268,
    "lat": -31.55993,
    "lon": 18.344,
    "featureCode": "PPL"
  },
  {
    "name": "Dullstroom",
    "ascii": "Dullstroom",
    "state": "Mpumalanga",
    "population": 6256,
    "lat": -25.41672,
    "lon": 30.10609,
    "featureCode": "PPL"
  },
  {
    "name": "Justicia",
    "ascii": "Justicia",
    "state": "Limpopo",
    "population": 6221,
    "lat": -24.88002,
    "lon": 31.41316,
    "featureCode": "PPL"
  },
  {
    "name": "Oranjeville",
    "ascii": "Oranjeville",
    "state": "Free State",
    "population": 6189,
    "lat": -26.99379,
    "lon": 28.20967,
    "featureCode": "PPL"
  },
  {
    "name": "eMakhazeni B",
    "ascii": "eMakhazeni B",
    "state": "Mpumalanga",
    "population": 6118,
    "lat": -24.9512,
    "lon": 31.37171,
    "featureCode": "PPL"
  },
  {
    "name": "Perdekop",
    "ascii": "Perdekop",
    "state": "Mpumalanga",
    "population": 6087,
    "lat": -27.16575,
    "lon": 29.62364,
    "featureCode": "PPL"
  },
  {
    "name": "Murraysburg",
    "ascii": "Murraysburg",
    "state": "Western Cape",
    "population": 6073,
    "lat": -31.96046,
    "lon": 23.76204,
    "featureCode": "PPL"
  },
  {
    "name": "Doornkop",
    "ascii": "Doornkop",
    "state": "Mpumalanga",
    "population": 6037,
    "lat": -25.60828,
    "lon": 29.43117,
    "featureCode": "PPL"
  },
  {
    "name": "Venterstad",
    "ascii": "Venterstad",
    "state": "Eastern Cape",
    "population": 5977,
    "lat": -30.77619,
    "lon": 25.79923,
    "featureCode": "PPL"
  },
  {
    "name": "Kareedouw",
    "ascii": "Kareedouw",
    "state": "Eastern Cape",
    "population": 5972,
    "lat": -33.9528,
    "lon": 24.29053,
    "featureCode": "PPLA3"
  },
  {
    "name": "Nthabalala",
    "ascii": "Nthabalala",
    "state": "Limpopo",
    "population": 5969,
    "lat": -23.21959,
    "lon": 29.99269,
    "featureCode": "PPL"
  },
  {
    "name": "Port Saint John’s",
    "ascii": "Port Saint John's",
    "state": "Eastern Cape",
    "population": 5939,
    "lat": -31.62291,
    "lon": 29.54477,
    "featureCode": "PPL"
  },
  {
    "name": "Thabakgolo",
    "ascii": "Thabakgolo",
    "state": "Mpumalanga",
    "population": 5939,
    "lat": -24.8005,
    "lon": 31.03186,
    "featureCode": "PPL"
  },
  {
    "name": "St Francis Bay",
    "ascii": "St Francis Bay",
    "state": "Eastern Cape",
    "population": 5910,
    "lat": -34.16026,
    "lon": 24.82618,
    "featureCode": "PPLX"
  },
  {
    "name": "Qumbu",
    "ascii": "Qumbu",
    "state": "Eastern Cape",
    "population": 5904,
    "lat": -31.16304,
    "lon": 28.87056,
    "featureCode": "PPLA3"
  },
  {
    "name": "Magabeni",
    "ascii": "Magabeni",
    "state": "KwaZulu-Natal",
    "population": 5904,
    "lat": -30.17242,
    "lon": 30.76566,
    "featureCode": "PPL"
  },
  {
    "name": "Orinoco A",
    "ascii": "Orinoco A",
    "state": "Mpumalanga",
    "population": 5884,
    "lat": -24.76259,
    "lon": 31.06516,
    "featureCode": "PPL"
  },
  {
    "name": "Reddersburg",
    "ascii": "Reddersburg",
    "state": "Free State",
    "population": 5854,
    "lat": -29.65301,
    "lon": 26.16773,
    "featureCode": "PPL"
  },
  {
    "name": "Tshandama",
    "ascii": "Tshandama",
    "state": "Limpopo",
    "population": 5842,
    "lat": -22.74567,
    "lon": 30.50933,
    "featureCode": "PPL"
  },
  {
    "name": "Louterwater",
    "ascii": "Louterwater",
    "state": "Eastern Cape",
    "population": 5785,
    "lat": -33.80009,
    "lon": 23.66382,
    "featureCode": "PPL"
  },
  {
    "name": "Carnarvon",
    "ascii": "Carnarvon",
    "state": "Northern Cape",
    "population": 5785,
    "lat": -30.96827,
    "lon": 22.13303,
    "featureCode": "PPLA3"
  },
  {
    "name": "Ludlow",
    "ascii": "Ludlow",
    "state": "Limpopo",
    "population": 5766,
    "lat": -24.66921,
    "lon": 31.27929,
    "featureCode": "PPL"
  },
  {
    "name": "Stanford",
    "ascii": "Stanford",
    "state": "Western Cape",
    "population": 5747,
    "lat": -34.4394,
    "lon": 19.45615,
    "featureCode": "PPL"
  },
  {
    "name": "Smithfield",
    "ascii": "Smithfield",
    "state": "Free State",
    "population": 5725,
    "lat": -30.21366,
    "lon": 26.5307,
    "featureCode": "PPL"
  },
  {
    "name": "Riebeek-Kasteel",
    "ascii": "Riebeek-Kasteel",
    "state": "Western Cape",
    "population": 5704,
    "lat": -33.38445,
    "lon": 18.89953,
    "featureCode": "PPL"
  },